stop_id,stop_name,stop_desc,stop_lat,stop_lon,stop_url
11020561,Mor Aases vei,11020561,58.831536,5.713771,http://gt.rkt.no/H11020561
11020565,Statoil vest,11020565,58.891869,5.706683,http://gt.rkt.no/H11020565
11020566,Høgevoll,11020566,58.874240,5.764457,http://gt.rkt.no/H11020566
11020572,Torvmyrå,11020572,58.888398,5.725411,http://gt.rkt.no/H11020572
11020573,Torvmyrå,11020573,58.888259,5.725528,http://gt.rkt.no/H11020573
11270574,Tunge,11270574,59.034150,5.586740,http://gt.rkt.no/H11270574
11270577,Sande,11270577,59.025710,5.590539,http://gt.rkt.no/H11270577
11270578,Sande,11270578,59.025475,5.590493,http://gt.rkt.no/H11270578
11270579,Sandestranden,11270579,59.022887,5.594950,http://gt.rkt.no/H11270579
11270580,Sandestranden,11270580,59.022653,5.594939,http://gt.rkt.no/H11270580
11270582,Randeberggeilen nord,11270582,59.020765,5.596614,http://gt.rkt.no/H11270582
11270585,Randeberggeilen 8,11270585,59.017216,5.603180,http://gt.rkt.no/H11270585
11270588,Randaberggeilen sør,11270588,59.015073,5.602380,http://gt.rkt.no/H11270588
11270591,Sandeveien,11270591,59.015806,5.590579,http://gt.rkt.no/H11270591
11270592,Indre Bø,11270592,59.012722,5.579975,http://gt.rkt.no/H11270592
11270593,Vestre Bø,11270593,59.011624,5.575170,http://gt.rkt.no/H11270593
11270596,Einersvarden,11270596,59.002848,5.572332,http://gt.rkt.no/H11270596
11270598,Bøveien 213,11270598,59.002345,5.578462,http://gt.rkt.no/H11270598
11270604,Mekjarvik kai,11270604,59.023245,5.612530,http://gt.rkt.no/H11270604
11270605,Tungenesveien,11270605,59.012980,5.606525,http://gt.rkt.no/H11270605
11270606,Steinnes,11270606,59.008259,5.612253,http://gt.rkt.no/H11270606
11270608,Randaberg idrettshus,11270608,59.006423,5.618333,http://gt.rkt.no/H11270608
11270609,Randaberg idrettshus,11270609,59.006431,5.618075,http://gt.rkt.no/H11270609
11270610,Harestadhøyden,11270610,59.009263,5.627396,http://gt.rkt.no/H11270610
11270611,Harestadhøyden,11270611,59.009451,5.628060,http://gt.rkt.no/H11270611
11270612,Harestadveien,11270612,59.010745,5.632751,http://gt.rkt.no/H11270612
11270613,Harestadveien,11270613,59.011415,5.634908,http://gt.rkt.no/H11270613
11270614,Harestadvika,11270614,59.012036,5.636976,http://gt.rkt.no/H11270614
11270615,Harestadvika,11270615,59.012046,5.637121,http://gt.rkt.no/H11270615
11270616,Harestad v/E39,11270616,59.012850,5.635637,http://gt.rkt.no/H11270616
11270617,Titanveien,11270617,59.010367,5.644129,http://gt.rkt.no/H11270617
11270618,Skiftesvikveien,11270618,59.011533,5.639021,http://gt.rkt.no/H11270618
11270619,Agatveien,11270619,59.010263,5.647905,http://gt.rkt.no/H11270619
11270620,Agatveien,11270620,59.010245,5.647668,http://gt.rkt.no/H11270620
11270621,Torvmyrveien,11270621,59.008448,5.652343,http://gt.rkt.no/H11270621
11270622,Torvmyrveien,11270622,59.008526,5.652156,http://gt.rkt.no/H11270622
11270623,Hagafjell,11270623,59.006210,5.655098,http://gt.rkt.no/H11270623
11270624,Hagafjell,11270624,59.006175,5.655091,http://gt.rkt.no/H11270624
11270625,Fjellprydveien,11270625,59.002778,5.655601,http://gt.rkt.no/H11270625
11270626,Fjellheimveien,11270626,59.001635,5.655571,http://gt.rkt.no/H11270626
11270627,Ryggveien,11270627,59.001496,5.653255,http://gt.rkt.no/H11270627
11270628,Ryggveien,11270628,59.000906,5.652518,http://gt.rkt.no/H11270628
11270629,Barlindveien,11270629,58.999331,5.653370,http://gt.rkt.no/H11270629
11270630,Randaberg vgs.,11270630,58.997511,5.655325,http://gt.rkt.no/H11270630
11270631,Barlindveien,11270631,58.999015,5.653861,http://gt.rkt.no/H11270631
11270632,Fjellprydveien,11270632,59.002976,5.655686,http://gt.rkt.no/H11270632
11270633,Titanveien,11270633,59.010751,5.642448,http://gt.rkt.no/H11270633
11270635,Austmarka,11270635,58.979851,5.652433,http://gt.rkt.no/H11270635
11270636,Austmarka,11270636,58.979771,5.651442,http://gt.rkt.no/H11270636
11270637,Leikvollbakken,11270637,58.980381,5.657302,http://gt.rkt.no/H11270637
11270638,Leikvollbakken,11270638,58.980518,5.657539,http://gt.rkt.no/H11270638
11270639,Hålandhaugen,11270639,58.979655,5.642398,http://gt.rkt.no/H11270639
11270640,Lyngnes,11270640,58.978993,5.647772,http://gt.rkt.no/H11270640
11270643,Endrestø nord,11270643,58.979929,5.616923,http://gt.rkt.no/H11270643
11270644,Viste strandhotell,11270644,58.987346,5.609790,http://gt.rkt.no/H11270644
11270651,Sørli,11270651,58.993508,5.613436,http://gt.rkt.no/H11270651
11270652,Visteveien 34,11270652,58.989630,5.609218,http://gt.rkt.no/H11270652
11270653,Visteveien 34,11270653,58.989490,5.609150,http://gt.rkt.no/H11270653
11270654,Vistvik,11270654,58.994153,5.573894,http://gt.rkt.no/H11270654
11270656,Vistnes sør,11270656,58.989650,5.572194,http://gt.rkt.no/H11270656
11270657,Vistnesvågen,11270657,58.986586,5.570548,http://gt.rkt.no/H11270657
11270658,Vistnesveien 40,11270658,58.995179,5.605300,http://gt.rkt.no/H11270658
11270660,Visteveien,11270660,58.997208,5.612068,http://gt.rkt.no/H11270660
11270661,Raustien,11270661,58.989085,5.585839,http://gt.rkt.no/H11270661
11270666,Bøveien 246,11270666,59.002609,5.586067,http://gt.rkt.no/H11270666
11270667,Vistvikveien 2,11270667,59.001540,5.595301,http://gt.rkt.no/H11270667
11270668,Bøveien,11270668,59.001697,5.602306,http://gt.rkt.no/H11270668
11270670,Bøveien 66,11270670,59.002928,5.594089,http://gt.rkt.no/H11270670
11270671,Vistvikveien 10,11270671,59.000518,5.591291,http://gt.rkt.no/H11270671
11270673,Randaberg sentrum,11270673,58.999450,5.616643,http://gt.rkt.no/H11270673
11270674,Randaberg komm.hus,11270674,58.999190,5.620900,http://gt.rkt.no/H11270674
11270675,Randaberg komm.hus,11270675,58.999210,5.620296,http://gt.rkt.no/H11270675
11270676,Dalveien,11270676,58.997008,5.628538,http://gt.rkt.no/H11270676
11270677,Dalveien,11270677,58.996624,5.629284,http://gt.rkt.no/H11270677
11270678,Ryggleet,11270678,58.994728,5.638307,http://gt.rkt.no/H11270678
11270679,Ryggleet,11270679,58.994564,5.638370,http://gt.rkt.no/H11270679
11270680,Goaveien,11270680,58.993078,5.644677,http://gt.rkt.no/H11270680
11270681,Goaveien,11270681,58.993565,5.643181,http://gt.rkt.no/H11270681
11270684,Oddahaugen,11270684,59.010658,5.609490,http://gt.rkt.no/H11270684
11270685,Gamle Harestadvei,11270685,59.004405,5.620441,http://gt.rkt.no/H11270685
11270686,Gamle Harestadvei,11270686,59.004316,5.620716,http://gt.rkt.no/H11270686
11270687,Gjertrudmyr,11270687,59.008235,5.623215,http://gt.rkt.no/H11270687
11270688,Gjertrudmyr,11270688,59.007923,5.621825,http://gt.rkt.no/H11270688
11270689,Visteveien 11,11270689,58.995560,5.612989,http://gt.rkt.no/H11270689
11270690,Visteveien 11,11270690,58.995821,5.613051,http://gt.rkt.no/H11270690
11270692,Vistnesveien 68,11270692,58.992373,5.598419,http://gt.rkt.no/H11270692
11270695,Vistnesveien 107,11270695,58.991004,5.593190,http://gt.rkt.no/H11270695
11270697,Vistnesveien 173,11270697,58.988449,5.577073,http://gt.rkt.no/H11270697
11270699,Slåttå,11270699,58.982856,5.635433,http://gt.rkt.no/H11270699
11270700,Randaberg vgs.,11270700,58.997303,5.655750,http://gt.rkt.no/H11270700
11270701,Slåttå,11270701,58.982456,5.636093,http://gt.rkt.no/H11270701
11270702,Endrestø,11270702,58.977025,5.613419,http://gt.rkt.no/H11270702
11270703,Viste strandhotell,11270703,58.987193,5.610131,http://gt.rkt.no/H11270703
11270705,Harestad v/E39,11270705,59.011403,5.635990,http://gt.rkt.no/H11270705
11240709,Jåsund,11240709,58.952878,5.606048,http://gt.rkt.no/H11240709
11240710,Jåsund,11240710,58.952708,5.605595,http://gt.rkt.no/H11240710
11240711,Myklebustveien,11240711,58.949775,5.601550,http://gt.rkt.no/H11240711
11240712,Myklebust,11240712,58.950138,5.602145,http://gt.rkt.no/H11240712
11240713,Mæland,11240713,58.944296,5.597783,http://gt.rkt.no/H11240713
11240714,Mæland,11240714,58.944188,5.597670,http://gt.rkt.no/H11240714
11240715,Storemyr,11240715,58.943071,5.587636,http://gt.rkt.no/H11240715
11240716,Storemyr,11240716,58.942810,5.589101,http://gt.rkt.no/H11240716
11240717,Notvegen,11240717,58.943593,5.581641,http://gt.rkt.no/H11240717
11240718,Notvegen,11240718,58.943535,5.583001,http://gt.rkt.no/H11240718
11240719,Tareringen,11240719,58.942251,5.575771,http://gt.rkt.no/H11240719
11240720,Tareringen,11240720,58.942798,5.576456,http://gt.rkt.no/H11240720
11240721,Storevarden skole,11240721,58.938796,5.574223,http://gt.rkt.no/H11240721
11240722,Storevarden skole,11240722,58.938596,5.574126,http://gt.rkt.no/H11240722
11240723,Risnesbakken,11240723,58.938064,5.574815,http://gt.rkt.no/H11240723
11240724,Risnesbakken,11240724,58.937574,5.574623,http://gt.rkt.no/H11240724
11240725,Losvegen,11240725,58.936915,5.575498,http://gt.rkt.no/H11240725
11240726,Losvegen,11240726,58.936128,5.576183,http://gt.rkt.no/H11240726
11240727,Tananger havn,11240727,58.935151,5.579561,http://gt.rkt.no/H11240727
11240728,Tananger havn,11240728,58.934928,5.581518,http://gt.rkt.no/H11240728
11240729,Skibmannsvegen,11240729,58.934858,5.587748,http://gt.rkt.no/H11240729
11240730,Skibmannsvegen,11240730,58.934911,5.585833,http://gt.rkt.no/H11240730
11240731,Myrvegen,11240731,58.934946,5.590861,http://gt.rkt.no/H11240731
11240732,Myrvegen,11240732,58.934843,5.591548,http://gt.rkt.no/H11240732
11240733,Tananger kirke,11240733,58.935356,5.600313,http://gt.rkt.no/H11240733
11240734,Tananger kirke,11240734,58.935560,5.601280,http://gt.rkt.no/H11240734
11240735,Hagakrossen,11240735,58.935135,5.604773,http://gt.rkt.no/H11240735
11240736,Hagakrossen,11240736,58.935213,5.604951,http://gt.rkt.no/H11240736
11240738,Hagafeltet,11240738,58.933241,5.606198,http://gt.rkt.no/H11240738
11240739,Plattformvegen,11240739,58.933836,5.602586,http://gt.rkt.no/H11240739
11240740,Plattformvegen,11240740,58.934083,5.602605,http://gt.rkt.no/H11240740
11240741,Phillipsbasen,11240741,58.934116,5.595011,http://gt.rkt.no/H11240741
11240742,Phillipsbasen,11240742,58.934280,5.595388,http://gt.rkt.no/H11240742
11240743,Norscobasen,11240743,58.933972,5.587306,http://gt.rkt.no/H11240743
11240744,Norscobasen,11240744,58.934221,5.587194,http://gt.rkt.no/H11240744
11240745,Hagafeltet,11240745,58.932563,5.606450,http://gt.rkt.no/H11240745
11240746,Snødevegen,11240746,58.928270,5.607491,http://gt.rkt.no/H11240746
11240747,Risavika,11240747,58.926081,5.607061,http://gt.rkt.no/H11240747
11240749,Risabergvegen,11240749,58.923483,5.606130,http://gt.rkt.no/H11240749
11240750,Risabergvegen,11240750,58.922133,5.605458,http://gt.rkt.no/H11240750
11240751,Orshaug,11240751,58.912196,5.604255,http://gt.rkt.no/H11240751
11240752,Orshaug,11240752,58.912901,5.603455,http://gt.rkt.no/H11240752
11240753,Tjora,11240753,58.917523,5.604600,http://gt.rkt.no/H11240753
11240754,Tjora,11240754,58.917711,5.604870,http://gt.rkt.no/H11240754
11240756,Hamrabukta,11240756,58.921596,5.602153,http://gt.rkt.no/H11240756
11240757,Hamrabukta,11240757,58.921803,5.602166,http://gt.rkt.no/H11240757
11240758,Sola skole,11240758,58.907108,5.609240,http://gt.rkt.no/H11240758
11240759,Sola skole,11240759,58.907928,5.608088,http://gt.rkt.no/H11240759
11240764,Quality Airport Hotel,11240764,58.891680,5.630663,http://gt.rkt.no/H11240764
11240765,Quality Airport Hotel,11240765,58.892603,5.630505,http://gt.rkt.no/H11240765
11240766,Sømmevegen,11240766,58.891839,5.628841,http://gt.rkt.no/H11240766
11240767,Sømmevegen,11240767,58.891975,5.627670,http://gt.rkt.no/H11240767
11240768,Sola kirke,11240768,58.890875,5.620856,http://gt.rkt.no/H11240768
11240769,Sola kirke,11240769,58.891053,5.621238,http://gt.rkt.no/H11240769
11240770,Sola ruinkirke,11240770,58.890968,5.613600,http://gt.rkt.no/H11240770
11240772,Sola strandleir,11240772,58.889746,5.610475,http://gt.rkt.no/H11240772
11240773,Solastranden,11240773,58.886940,5.607039,http://gt.rkt.no/H11240773
11240774,Flyplassvegen,11240774,58.888328,5.626090,http://gt.rkt.no/H11240774
11240775,Flyplassvegen,11240775,58.888555,5.627516,http://gt.rkt.no/H11240775
11240777,Stavanger Lufthavn,11240777,58.882763,5.629046,http://gt.rkt.no/H11240777
11240778,Ølbergskogen,11240778,58.871244,5.601653,http://gt.rkt.no/H11240778
11240779,Ølbergkrysset,11240779,58.870350,5.600983,http://gt.rkt.no/H11240779
11240780,Ølbergkrysset,11240780,58.870667,5.600545,http://gt.rkt.no/H11240780
11240781,Gardshaugvegen,11240781,58.869892,5.593642,http://gt.rkt.no/H11240781
11240782,Gardshaugvegen,11240782,58.869512,5.593558,http://gt.rkt.no/H11240782
11240783,Ølberg,11240783,58.866536,5.570112,http://gt.rkt.no/H11240783
11240784,Ølberg,11240784,58.866204,5.570110,http://gt.rkt.no/H11240784
11240785,Håland skole,11240785,58.859713,5.584635,http://gt.rkt.no/H11240785
11240787,Vigdel,11240787,58.856170,5.564101,http://gt.rkt.no/H11240787
11240788,Hålandsmarka,11240788,58.851137,5.576710,http://gt.rkt.no/H11240788
11240789,Rægekrossen,11240789,58.859450,5.614586,http://gt.rkt.no/H11240789
11240790,Rægekrossen,11240790,58.859184,5.614729,http://gt.rkt.no/H11240790
11240791,Gamle Tjeltaveg,11240791,58.854138,5.610474,http://gt.rkt.no/H11240791
11240792,Gamle Tjeltaveg,11240792,58.853880,5.609528,http://gt.rkt.no/H11240792
11240793,Tjelta,11240793,58.849359,5.605426,http://gt.rkt.no/H11240793
11240794,Tjelta,11240794,58.849262,5.606198,http://gt.rkt.no/H11240794
11240795,Tjelta,11240795,58.846690,5.602723,http://gt.rkt.no/H11240795
11240796,Høgeholen,11240796,58.844860,5.598935,http://gt.rkt.no/H11240796
11240798,Velahaug,11240798,58.832969,5.597426,http://gt.rkt.no/H11240798
11240799,Byberg,11240799,58.830265,5.594762,http://gt.rkt.no/H11240799
11240800,Byberg,11240800,58.829902,5.594954,http://gt.rkt.no/H11240800
11240801,Sele,11240801,58.824763,5.588595,http://gt.rkt.no/H11240801
11240802,Sele,11240802,58.824963,5.589355,http://gt.rkt.no/H11240802
11240804,Vigdelsvegen,11240804,58.843470,5.597367,http://gt.rkt.no/H11240804
11240807,Sandnesvegen 30,11240807,58.871825,5.662474,http://gt.rkt.no/H11240807
11240810,Stangeland,11240810,58.872148,5.654466,http://gt.rkt.no/H11240810
11240811,Stangelandvegen,11240811,58.869461,5.650676,http://gt.rkt.no/H11240811
11240812,Stangelandvegen,11240812,58.869268,5.651215,http://gt.rkt.no/H11240812
11240813,Stemmen,11240813,58.867376,5.644636,http://gt.rkt.no/H11240813
11240814,Stemmen,11240814,58.866904,5.644815,http://gt.rkt.no/H11240814
11240815,Nordsjøkrysset,11240815,58.865780,5.631859,http://gt.rkt.no/H11240815
11240816,Nordsjøkrysset,11240816,58.865639,5.632462,http://gt.rkt.no/H11240816
11240817,Stangeland skole,11240817,58.878443,5.655657,http://gt.rkt.no/H11240817
11240818,Stangeland skole,11240818,58.878595,5.655219,http://gt.rkt.no/H11240818
11240819,Ljosheimkrossen,11240819,58.881090,5.654130,http://gt.rkt.no/H11240819
11240823,Kjelsberg ring,11240823,58.882870,5.654300,http://gt.rkt.no/H11240823
11240824,Skvadronvegen,11240824,58.884477,5.646601,http://gt.rkt.no/H11240824
11240825,Skvadronvegen,11240825,58.883930,5.646981,http://gt.rkt.no/H11240825
11240826,Solakrossen,11240826,58.886028,5.645828,http://gt.rkt.no/H11240826
11240827,Sande terrasse,11240827,58.885875,5.653681,http://gt.rkt.no/H11240827
11240828,Sande terrasse,11240828,58.886360,5.653350,http://gt.rkt.no/H11240828
11240829,Sola kulturhus,11240829,58.889535,5.652810,http://gt.rkt.no/H11240829
11240831,Sola kulturhus,11240831,58.889105,5.652770,http://gt.rkt.no/H11240831
11240832,Sandesletta,11240832,58.891530,5.652046,http://gt.rkt.no/H11240832
11240833,Sandesletta,11240833,58.892198,5.652266,http://gt.rkt.no/H11240833
11240834,Kongshaugveien,11240834,58.890138,5.645745,http://gt.rkt.no/H11240834
11240835,Kongshaugveien,11240835,58.889891,5.645983,http://gt.rkt.no/H11240835
11240837,Skiljaberget,11240837,58.895780,5.647329,http://gt.rkt.no/H11240837
11240838,Skiljaberget,11240838,58.896110,5.647558,http://gt.rkt.no/H11240838
11240839,Sola u.skole,11240839,58.894770,5.653976,http://gt.rkt.no/H11240839
11240840,Sola u.skole,11240840,58.894586,5.653943,http://gt.rkt.no/H11240840
11240843,Åsenhallen,11240843,58.890931,5.667280,http://gt.rkt.no/H11240843
11240846,Åsenhallen,11240846,58.891168,5.666363,http://gt.rkt.no/H11240846
11240847,Skadbergåsen,11240847,58.892950,5.672116,http://gt.rkt.no/H11240847
11240848,Skadbergåsen,11240848,58.893081,5.673350,http://gt.rkt.no/H11240848
11240849,Moseid,11240849,58.893611,5.681389,http://gt.rkt.no/H11240849
11240850,Moseid,11240850,58.893611,5.681667,http://gt.rkt.no/H11240850
11240851,Joabakken,11240851,58.897453,5.656493,http://gt.rkt.no/H11240851
11240852,Joabakken,11240852,58.897643,5.656470,http://gt.rkt.no/H11240852
11240853,Røyneberg,11240853,58.904740,5.663478,http://gt.rkt.no/H11240853
11240854,Røyneberg,11240854,58.904916,5.663755,http://gt.rkt.no/H11240854
11240855,Sørnes kirke,11240855,58.911076,5.675578,http://gt.rkt.no/H11240855
11240856,Sørnes kirke,11240856,58.911358,5.676043,http://gt.rkt.no/H11240856
11240857,Ytraberget,11240857,58.909180,5.668196,http://gt.rkt.no/H11240857
11240858,Ytraberget,11240858,58.909671,5.670233,http://gt.rkt.no/H11240858
11240859,Marknesringen,11240859,58.915805,5.679556,http://gt.rkt.no/H11240859
11240860,Marknesringen,11240860,58.915840,5.679345,http://gt.rkt.no/H11240860
11240861,Grannes skole,11240861,58.918713,5.680493,http://gt.rkt.no/H11240861
11240862,Grannessletta,11240862,58.922608,5.683100,http://gt.rkt.no/H11240862
11240863,Grannes skole,11240863,58.919466,5.680670,http://gt.rkt.no/H11240863
11240864,Grannessletta,11240864,58.923735,5.684180,http://gt.rkt.no/H11240864
11240865,Grannes gartneri,11240865,58.928910,5.694131,http://gt.rkt.no/H11240865
11240866,Grannes gartneri,11240866,58.928980,5.694390,http://gt.rkt.no/H11240866
11240867,Novarmen,11240867,58.931791,5.697058,http://gt.rkt.no/H11240867
11240868,Novarmen,11240868,58.930988,5.695728,http://gt.rkt.no/H11240868
11240869,Snødevegen,11240869,58.929060,5.607743,http://gt.rkt.no/H11240869
11240870,Granneskrossen,11240870,58.929753,5.687368,http://gt.rkt.no/H11240870
11240871,Granneskrossen,11240871,58.929973,5.687575,http://gt.rkt.no/H11240871
11030875,Stavanger hlp. 27,11030875,58.969313,5.731358,http://gt.rkt.no/H11030875
11030876,Stavanger hlp. 23,11030876,58.968430,5.731200,http://gt.rkt.no/H11030876
11030877,Stavanger hlp. 10,11030877,58.966820,5.733910,http://gt.rkt.no/H11030877
11030881,Ny Olavskleiv,11030881,58.967873,5.729126,http://gt.rkt.no/H11030881
11030889,Stavanger hlp. 44,11030889,58.970698,5.735571,http://gt.rkt.no/H11030889
11030891,Nytorget,11030891,58.970226,5.738260,http://gt.rkt.no/H11030891
11030892,Stavanger tinghus,11030892,58.969908,5.736706,http://gt.rkt.no/H11030892
11030893,Pedersbakken,11030893,58.969331,5.736126,http://gt.rkt.no/H11030893
11030894,Stavanger hlp. 38,11030894,58.969120,5.735080,http://gt.rkt.no/H11030894
11030895,Breibakken,11030895,58.967748,5.735773,http://gt.rkt.no/H11030895
11030896,Stiftelsesgata,11030896,58.967140,5.735663,http://gt.rkt.no/H11030896
11030898,Stavanger hlp. 9,11030898,58.966186,5.734612,http://gt.rkt.no/H11030898
11030905,Søylandsgata,11030905,58.965206,5.759356,http://gt.rkt.no/H11030905
11030906,Søylandsgata,11030906,58.965186,5.759097,http://gt.rkt.no/H11030906
11030909,Karlsminnegata,11030909,58.966030,5.750845,http://gt.rkt.no/H11030909
11030912,Haukeligata,11030912,58.965881,5.746756,http://gt.rkt.no/H11030912
11030914,Opheimsgata,11030914,58.967350,5.744590,http://gt.rkt.no/H11030914
11030920,Adm. Cruys gate,11030920,58.963378,5.744480,http://gt.rkt.no/H11030920
11030921,Adm. Cruys gate,11030921,58.963358,5.744576,http://gt.rkt.no/H11030921
11030922,Frue terrasse,11030922,58.961538,5.746155,http://gt.rkt.no/H11030922
11030923,Frue terrasse,11030923,58.961235,5.746598,http://gt.rkt.no/H11030923
11031408,Sundekrossen,11031408,58.961900,5.613460,http://gt.rkt.no/H11031408
11031410,Donevigstraen,11031410,58.961870,5.608100,http://gt.rkt.no/H11031410
11031411,Teisteveien,11031411,58.961860,5.603340,http://gt.rkt.no/H11031411
11031412,Teisteveien,11031412,58.962129,5.602370,http://gt.rkt.no/H11031412
11031413,Ærfuglveien,11031413,58.963170,5.599750,http://gt.rkt.no/H11031413
11031414,Ærfuglveien,11031414,58.963900,5.599560,http://gt.rkt.no/H11031414
11031415,Kvernevik ring,11031415,58.965050,5.598990,http://gt.rkt.no/H11031415
11031416,Kvernevik ring,11031416,58.965330,5.598620,http://gt.rkt.no/H11031416
11031417,Svartbakveien,11031417,58.966670,5.597550,http://gt.rkt.no/H11031417
11031418,Måkeberget,11031418,58.968451,5.596535,http://gt.rkt.no/H11031418
11031419,Måkeberget,11031419,58.969950,5.598200,http://gt.rkt.no/H11031419
11031420,Alkeveien,11031420,58.971850,5.603240,http://gt.rkt.no/H11031420
11031421,Ørnaberget,11031421,58.973030,5.607510,http://gt.rkt.no/H11031421
11031422,Ørnaberget,11031422,58.973310,5.608600,http://gt.rkt.no/H11031422
11031423,Rødstilkveien,11031423,58.973980,5.611590,http://gt.rkt.no/H11031423
11031424,Rødstilkveien,11031424,58.974090,5.612320,http://gt.rkt.no/H11031424
11031425,Havørnbrautene,11031425,58.971340,5.612680,http://gt.rkt.no/H11031425
11031426,Havørnbrautene,11031426,58.971308,5.612907,http://gt.rkt.no/H11031426
11031427,Kverntorget,11031427,58.967570,5.612270,http://gt.rkt.no/H11031427
11031428,Kverntorget,11031428,58.966570,5.612340,http://gt.rkt.no/H11031428
11031429,Erika Nissens vei,11031429,58.963660,5.701538,http://gt.rkt.no/H11031429
11031430,Kvivoll,11031430,58.980759,5.661994,http://gt.rkt.no/H11031430
11031431,Tastatorget,11031431,58.983234,5.670170,http://gt.rkt.no/H11031431
11031432,Tastatorget,11031432,58.983332,5.668905,http://gt.rkt.no/H11031432
11031433,Tasta skole,11031433,58.983385,5.681051,http://gt.rkt.no/H11031433
11031434,Tasta skole,11031434,58.983255,5.680341,http://gt.rkt.no/H11031434
11031435,Rusteveien,11031435,58.983614,5.684234,http://gt.rkt.no/H11031435
11031436,Rusteveien,11031436,58.983480,5.685003,http://gt.rkt.no/H11031436
11031437,Tastamyrkroken,11031437,58.988498,5.673531,http://gt.rkt.no/H11031437
11031438,Eskelandstunet,11031438,58.990500,5.668666,http://gt.rkt.no/H11031438
11031439,Ulaveien,11031439,58.990310,5.674670,http://gt.rkt.no/H11031439
11031440,Litle Dusavigå,11031440,58.994605,5.667835,http://gt.rkt.no/H11031440
11031441,Litle Dusavigå,11031441,58.994510,5.667910,http://gt.rkt.no/H11031441
11031442,Finnestadgeilen,11031442,58.994851,5.665501,http://gt.rkt.no/H11031442
11031443,Finnestadgeilen,11031443,58.994540,5.665788,http://gt.rkt.no/H11031443
11031444,Sothammargeilen,11031444,58.995536,5.660770,http://gt.rkt.no/H11031444
11031445,Grødemtunet,11031445,58.996071,5.655651,http://gt.rkt.no/H11031445
11031446,Grødemtunet,11031446,58.996075,5.657091,http://gt.rkt.no/H11031446
11031447,Kvitmyrveien,11031447,58.990668,5.654776,http://gt.rkt.no/H11031447
11031448,Kvitmyrveien,11031448,58.990781,5.654910,http://gt.rkt.no/H11031448
11031449,Høyehaugen,11031449,58.989450,5.660316,http://gt.rkt.no/H11031449
11031450,Høyehaugen,11031450,58.989413,5.659861,http://gt.rkt.no/H11031450
11031451,Høyebakken,11031451,58.988408,5.664479,http://gt.rkt.no/H11031451
11031452,Høyebakken,11031452,58.986336,5.665191,http://gt.rkt.no/H11031452
11031453,Ulaveien,11031453,58.990890,5.675000,http://gt.rkt.no/H11031453
11031456,Hasselhøyveien,11031456,58.993385,5.676625,http://gt.rkt.no/H11031456
11031457,Gjerdeveien,11031457,58.993623,5.677866,http://gt.rkt.no/H11031457
11031461,Skogstøbakken,11031461,58.992804,5.690146,http://gt.rkt.no/H11031461
11031462,Skogstøbakken,11031462,58.993810,5.688330,http://gt.rkt.no/H11031462
11031463,Føynabakken,11031463,58.994083,5.688066,http://gt.rkt.no/H11031463
11031464,Vardeneset skole,11031464,58.994551,5.681886,http://gt.rkt.no/H11031464
11031465,Vardeneset skole,11031465,58.994980,5.683390,http://gt.rkt.no/H11031465
11031466,Stavanger hlp. 37,11031466,58.969140,5.734854,http://gt.rkt.no/H11031466
11031467,Mariero,11031467,58.934763,5.741216,http://gt.rkt.no/H11031467
11031468,Gosenstien,11031468,58.935125,5.691906,http://gt.rkt.no/H11031468
11031469,Tjensvoll kirke,11031469,58.949938,5.702406,http://gt.rkt.no/H11031469
11031470,Hinna sentrum,11031470,58.922162,5.723711,http://gt.rkt.no/H11031470
11031471,Hinna sentrum,11031471,58.921983,5.723973,http://gt.rkt.no/H11031471
11031472,Morgedalsveien,11031472,58.954160,5.685920,http://gt.rkt.no/H11031472
11031475,Midthallet,11031475,58.929690,5.736650,http://gt.rkt.no/H11031475
11031476,Madlavollveien,11031476,58.944365,5.688673,http://gt.rkt.no/H11031476
11031478,Sjøhagen,11031478,58.942190,5.745650,http://gt.rkt.no/H11031478
11031479,Sjøhagen,11031479,58.942620,5.745550,http://gt.rkt.no/H11031479
11031480,Saudagata,11031480,58.965788,5.736023,http://gt.rkt.no/H11031480
11031481,Vaulen,11031481,58.928430,5.735570,http://gt.rkt.no/H11031481
11031483,Kråkevollen,11031483,58.895480,5.738830,http://gt.rkt.no/H11031483
11031485,Forusbeen,11031485,58.891960,5.734823,http://gt.rkt.no/H11031485
11031486,Foruskanalen,11031486,58.894460,5.699351,http://gt.rkt.no/H11031486
11031487,Auglend,11031487,58.938636,5.723626,http://gt.rkt.no/H11031487
11031488,Auglendsdalen,11031488,58.936295,5.724150,http://gt.rkt.no/H11031488
11031489,Auglendsdalen,11031489,58.936195,5.724570,http://gt.rkt.no/H11031489
11031490,Tjensvoll kirke,11031490,58.949807,5.700932,http://gt.rkt.no/H11031490
11031491,Madlaleiren,11031491,58.944961,5.670555,http://gt.rkt.no/H11031491
11031492,Madlaleiren,11031492,58.944913,5.670365,http://gt.rkt.no/H11031492
11031493,Gunhilds gate,11031493,58.948000,5.672848,http://gt.rkt.no/H11031493
11031494,Gunhilds gate,11031494,58.949360,5.674211,http://gt.rkt.no/H11031494
11031495,Eskelandstunet,11031495,58.989993,5.668853,http://gt.rkt.no/H11031495
11031496,Fabrikkveien nord,11031496,58.900565,5.697941,http://gt.rkt.no/H11031496
11031497,Madlastø,11031497,58.944266,5.656522,http://gt.rkt.no/H11031497
11031498,Sundetunet,11031498,58.959560,5.633660,http://gt.rkt.no/H11031498
11031499,Sothammargeilen,11031499,58.995698,5.660116,http://gt.rkt.no/H11031499
11031501,Tastadalen,11031501,58.980803,5.682406,http://gt.rkt.no/H11031501
11031502,Tastadalen,11031502,58.980919,5.683081,http://gt.rkt.no/H11031502
11031503,Myrveien,11031503,58.976960,5.689196,http://gt.rkt.no/H11031503
11030925,Paradis,11030925,58.960448,5.747581,http://gt.rkt.no/H11030925
11030926,Varden kirke,11030926,58.959861,5.750290,http://gt.rkt.no/H11030926
11030929,Midjord,11030929,58.959585,5.752651,http://gt.rkt.no/H11030929
11030931,Nymansveien,11030931,58.962040,5.754750,http://gt.rkt.no/H11030931
11030933,Emmausveien,11030933,58.964047,5.756698,http://gt.rkt.no/H11030933
11030936,Sandnesgata,11030936,58.962933,5.759587,http://gt.rkt.no/H11030936
11030937,Sørnes,11030937,58.957348,5.753580,http://gt.rkt.no/H11030937
11030939,Godalen,11030939,58.955396,5.752870,http://gt.rkt.no/H11030939
11030941,Godalen vgs.,11030941,58.954588,5.751006,http://gt.rkt.no/H11030941
11030945,Godalsveien,11030945,58.958465,5.746500,http://gt.rkt.no/H11030945
11030949,Stavanger museum,11030949,58.964473,5.732576,http://gt.rkt.no/H11030949
11030950,Stavanger politikammer,11030950,58.963460,5.735550,http://gt.rkt.no/H11030950
11030951,Stavanger politikammer,11030951,58.963043,5.735663,http://gt.rkt.no/H11030951
11030952,Butlers gate,11030952,58.962510,5.734138,http://gt.rkt.no/H11030952
11030954,Chr. Jacobsens gate,11030954,58.960956,5.735455,http://gt.rkt.no/H11030954
11030955,Statens hus,11030955,58.961160,5.737800,http://gt.rkt.no/H11030955
11030956,Statens hus,11030956,58.960553,5.738111,http://gt.rkt.no/H11030956
11030957,Statens vegvesen,11030957,58.957083,5.740472,http://gt.rkt.no/H11030957
11030958,Statens vegvesen,11030958,58.957550,5.739918,http://gt.rkt.no/H11030958
11030959,Schives gate,11030959,58.963908,5.730750,http://gt.rkt.no/H11030959
11030960,Storgata,11030960,58.963863,5.732923,http://gt.rkt.no/H11030960
11030961,Butlers gate,11030961,58.962376,5.734116,http://gt.rkt.no/H11030961
11030962,Chr. Jacobsens gate,11030962,58.960836,5.735516,http://gt.rkt.no/H11030962
11030963,Rektor Steens gate,11030963,58.959065,5.736951,http://gt.rkt.no/H11030963
11030964,Rektor Steens gate,11030964,58.959478,5.736586,http://gt.rkt.no/H11030964
11030965,Marcus Thranes gate,11030965,58.956254,5.737721,http://gt.rkt.no/H11030965
11030966,Lindahlsbakken,11030966,58.955640,5.741340,http://gt.rkt.no/H11030966
11030968,Våland vgs.,11030968,58.955001,5.738050,http://gt.rkt.no/H11030968
11030969,Våland vgs.,11030969,58.955051,5.738085,http://gt.rkt.no/H11030969
11030970,Strømsbrua,11030970,58.953660,5.741920,http://gt.rkt.no/H11030970
11030971,Strømsbrua,11030971,58.954490,5.742132,http://gt.rkt.no/H11030971
11030972,Hillevågstunnelen,11030972,58.950470,5.742350,http://gt.rkt.no/H11030972
11030973,Hillevågstunnelen,11030973,58.951673,5.742305,http://gt.rkt.no/H11030973
11030974,Hillevåg,11030974,58.948350,5.743340,http://gt.rkt.no/H11030974
11030976,Torbj. Hornkloves gate,11030976,58.961811,5.726901,http://gt.rkt.no/H11030976
11030978,Våland sykehjem,11030978,58.959761,5.726098,http://gt.rkt.no/H11030978
11030980,Jørgen Moes gate,11030980,58.958795,5.729750,http://gt.rkt.no/H11030980
11030982,Friggsgate,11030982,58.956418,5.733395,http://gt.rkt.no/H11030982
11030985,Fredr. Nannestads vei,11030985,58.954003,5.733691,http://gt.rkt.no/H11030985
11030986,Fredr. Nannestads vei,11030986,58.953853,5.732613,http://gt.rkt.no/H11030986
11030989,Sykehuset v/p-hus,11030989,58.953248,5.729050,http://gt.rkt.no/H11030989
11030990,Sykehuset v/p-hus,11030990,58.952085,5.729296,http://gt.rkt.no/H11030990
11030991,Bekkefaret kirke,11030991,58.951238,5.727035,http://gt.rkt.no/H11030991
11030994,Berings gate,11030994,58.949921,5.730410,http://gt.rkt.no/H11030994
11030995,Berings gate,11030995,58.950006,5.730306,http://gt.rkt.no/H11030995
11030996,Gjøas gate,11030996,58.949203,5.732120,http://gt.rkt.no/H11030996
11030997,Gjøas gate,11030997,58.948288,5.734071,http://gt.rkt.no/H11030997
11031002,Haugåsveien,11031002,58.947610,5.734866,http://gt.rkt.no/H11031002
11031021,Kvaleberg skole,11031021,58.945060,5.744530,http://gt.rkt.no/H11031021
11031022,Kvaleberg skole,11031022,58.944520,5.744690,http://gt.rkt.no/H11031022
11031023,Eikeberg,11031023,58.938160,5.744030,http://gt.rkt.no/H11031023
11031025,Eikeberg,11031025,58.938061,5.743686,http://gt.rkt.no/H11031025
11031027,Kristianlyst,11031027,58.935570,5.741590,http://gt.rkt.no/H11031027
11031032,Mariero,11031032,58.933580,5.739860,http://gt.rkt.no/H11031032
11031034,Dalsetveien,11031034,58.935255,5.726315,http://gt.rkt.no/H11031034
11031035,Dalsetveien,11031035,58.934953,5.725983,http://gt.rkt.no/H11031035
11031036,Turveien,11031036,58.933360,5.728111,http://gt.rkt.no/H11031036
11031037,Turveien,11031037,58.932786,5.729280,http://gt.rkt.no/H11031037
11031038,Markveien,11031038,58.931323,5.730491,http://gt.rkt.no/H11031038
11031039,Markveien,11031039,58.931326,5.730363,http://gt.rkt.no/H11031039
11031040,Ryggjaveien,11031040,58.928791,5.732043,http://gt.rkt.no/H11031040
11031041,Ryggjaveien,11031041,58.928770,5.732086,http://gt.rkt.no/H11031041
11031042,Vaulen,11031042,58.927666,5.734316,http://gt.rkt.no/H11031042
11031043,Lyngnesveien,11031043,58.931810,5.738440,http://gt.rkt.no/H11031043
11031044,Lyngnesveien,11031044,58.931470,5.738423,http://gt.rkt.no/H11031044
11031045,Auglendsbakken,11031045,58.925630,5.730940,http://gt.rkt.no/H11031045
11031046,Auglendsbakken,11031046,58.926100,5.731990,http://gt.rkt.no/H11031046
11031047,Hinna kirke,11031047,58.924320,5.728360,http://gt.rkt.no/H11031047
11031048,Hinna kirke,11031048,58.924310,5.728140,http://gt.rkt.no/H11031048
11031049,Kari Lofthus gate,11031049,58.922786,5.723073,http://gt.rkt.no/H11031049
11031050,Vågedalen,11031050,58.922730,5.719830,http://gt.rkt.no/H11031050
11031051,Vågedalen,11031051,58.922625,5.719490,http://gt.rkt.no/H11031051
11031052,Jåttå vgs. Hinna,11031052,58.922315,5.713513,http://gt.rkt.no/H11031052
11031053,Jåttå vgs. Hinna,11031053,58.922300,5.713333,http://gt.rkt.no/H11031053
11031054,Hinna gravlund,11031054,58.921221,5.710073,http://gt.rkt.no/H11031054
11031056,Hinna skole,11031056,58.919498,5.724650,http://gt.rkt.no/H11031056
11031057,Hinna skole,11031057,58.918053,5.724851,http://gt.rkt.no/H11031057
11031058,Jåttåvågen,11031058,58.914560,5.726090,http://gt.rkt.no/H11031058
11031059,Jåttåvågen,11031059,58.914508,5.725679,http://gt.rkt.no/H11031059
11031060,Gauselvågen,11031060,58.911390,5.727010,http://gt.rkt.no/H11031060
11031061,Gauselvågen,11031061,58.911040,5.726840,http://gt.rkt.no/H11031061
11031063,Gausel sentrum,11031063,58.907667,5.729522,http://gt.rkt.no/H11031063
11031064,Gausel sentrum,11031064,58.907780,5.729560,http://gt.rkt.no/H11031064
11031065,Gauselhagen,11031065,58.905030,5.737020,http://gt.rkt.no/H11031065
11031066,Gauselhagen,11031066,58.905130,5.736390,http://gt.rkt.no/H11031066
11031067,Dykjelbakken,11031067,58.898950,5.739900,http://gt.rkt.no/H11031067
11031068,Dykjelbakken,11031068,58.898770,5.739740,http://gt.rkt.no/H11031068
11031069,Gamle Forusvei,11031069,58.895476,5.739093,http://gt.rkt.no/H11031069
11031070,Forusveien,11031070,58.893859,5.738722,http://gt.rkt.no/H11031070
11031071,Forusveien,11031071,58.893110,5.739470,http://gt.rkt.no/H11031071
11031072,Forusskogen,11031072,58.890480,5.741570,http://gt.rkt.no/H11031072
11031073,Forusskogen,11031073,58.889410,5.741980,http://gt.rkt.no/H11031073
11031074,Nådlandsbråtet,11031074,58.892370,5.735000,http://gt.rkt.no/H11031074
11031075,Nådlandsbråtet,11031075,58.893580,5.736490,http://gt.rkt.no/H11031075
11031076,Forusbeen,11031076,58.890280,5.731930,http://gt.rkt.no/H11031076
11031077,Forusbeen,11031077,58.890570,5.732120,http://gt.rkt.no/H11031077
11031078,Bjødnabeen,11031078,58.892691,5.728081,http://gt.rkt.no/H11031078
11031079,Ulsbergveien,11031079,58.893863,5.726175,http://gt.rkt.no/H11031079
11031080,Ulsbergveien,11031080,58.893766,5.726405,http://gt.rkt.no/H11031080
11031081,Petroleumsveien,11031081,58.893021,5.722695,http://gt.rkt.no/H11031081
11031082,Petroleumsveien,11031082,58.893151,5.721805,http://gt.rkt.no/H11031082
11031083,Forus travbane,11031083,58.891983,5.723746,http://gt.rkt.no/H11031083
11031084,Forus travbane,11031084,58.891680,5.723513,http://gt.rkt.no/H11031084
11031085,Grensegata,11031085,58.890006,5.721531,http://gt.rkt.no/H11031085
11031086,Statoil øst,11031086,58.893553,5.718028,http://gt.rkt.no/H11031086
11031087,Statoil øst,11031087,58.893365,5.718443,http://gt.rkt.no/H11031087
11031088,Jægerveien,11031088,58.894581,5.722826,http://gt.rkt.no/H11031088
11031089,Jægerveien,11031089,58.894733,5.722609,http://gt.rkt.no/H11031089
11031090,Binnekroken,11031090,58.895825,5.725138,http://gt.rkt.no/H11031090
11031091,Ulsbergbakken,11031091,58.896688,5.726041,http://gt.rkt.no/H11031091
11031092,Ulsbergbakken,11031092,58.896635,5.727613,http://gt.rkt.no/H11031092
11031093,Storaberget,11031093,58.897043,5.721083,http://gt.rkt.no/H11031093
11031094,Heddestien,11031094,58.898033,5.720090,http://gt.rkt.no/H11031094
11031095,Ofolskroken,11031095,58.900906,5.720948,http://gt.rkt.no/H11031095
11031096,Ofolskroken,11031096,58.900265,5.721426,http://gt.rkt.no/H11031096
11031097,Kistebergheia,11031097,58.901446,5.720176,http://gt.rkt.no/H11031097
11031098,Kisteberglia,11031098,58.903115,5.719370,http://gt.rkt.no/H11031098
11031099,Mariahaugen,11031099,58.903865,5.719673,http://gt.rkt.no/H11031099
11031102,Mariabakken,11031102,58.903345,5.718463,http://gt.rkt.no/H11031102
11031103,Mariamarka,11031103,58.903430,5.715228,http://gt.rkt.no/H11031103
11031104,Mariamarka,11031104,58.903443,5.713130,http://gt.rkt.no/H11031104
11031109,Godesetdalen,11031109,58.898794,5.710418,http://gt.rkt.no/H11031109
11031111,Slettmyra,11031111,58.903031,5.708676,http://gt.rkt.no/H11031111
11031112,Slettmyra,11031112,58.902981,5.708526,http://gt.rkt.no/H11031112
11031113,Godesetdalen,11031113,58.900470,5.708670,http://gt.rkt.no/H11031113
11031115,Godesetkroken,11031115,58.896921,5.711253,http://gt.rkt.no/H11031115
11031116,Godesetkroken,11031116,58.896290,5.711550,http://gt.rkt.no/H11031116
11031117,Godesetbakken,11031117,58.895576,5.713635,http://gt.rkt.no/H11031117
11031118,Godesetbakken,11031118,58.895390,5.715188,http://gt.rkt.no/H11031118
11031119,Svanholmen v/E39,11031119,58.894470,5.707775,http://gt.rkt.no/H11031119
11031120,Forus brannstasjon,11031120,58.894566,5.704376,http://gt.rkt.no/H11031120
11031121,Forus brannstasjon,11031121,58.894456,5.701005,http://gt.rkt.no/H11031121
11031122,Living,11031122,58.895340,5.702910,http://gt.rkt.no/H11031122
11031123,Living,11031123,58.895210,5.702580,http://gt.rkt.no/H11031123
11031124,Sønnico,11031124,58.898390,5.702650,http://gt.rkt.no/H11031124
11031125,Hitech,11031125,58.898366,5.702889,http://gt.rkt.no/H11031125
11031126,Kruse Smith,11031126,58.899969,5.702848,http://gt.rkt.no/H11031126
11031128,Lagerveien,11031128,58.900750,5.702300,http://gt.rkt.no/H11031128
11031142,Samslåtten,11031142,58.920815,5.703156,http://gt.rkt.no/H11031142
11031143,Samslåtten,11031143,58.920641,5.702516,http://gt.rkt.no/H11031143
11031144,Vardeberg,11031144,58.918055,5.695958,http://gt.rkt.no/H11031144
11031145,Valaberget,11031145,58.916233,5.690043,http://gt.rkt.no/H11031145
11031146,Valaberget,11031146,58.915935,5.689146,http://gt.rkt.no/H11031146
11031147,Svartholen,11031147,58.913658,5.683628,http://gt.rkt.no/H11031147
11031148,Svartholen,11031148,58.913180,5.682631,http://gt.rkt.no/H11031148
11031152,Grannesveien,11031152,58.927195,5.698048,http://gt.rkt.no/H11031152
11241154,Prof. Olav Hanssens vei,11241154,58.933525,5.697690,http://gt.rkt.no/H11241154
11031155,Prof. Olav Hanssens vei,11031155,58.934333,5.697351,http://gt.rkt.no/H11031155
11031156,UiS Vest,11031156,58.938996,5.691846,http://gt.rkt.no/H11031156
11031157,Gosenstubben,11031157,58.939845,5.688695,http://gt.rkt.no/H11031157
11031158,Jernaldergården,11031158,58.941010,5.696190,http://gt.rkt.no/H11031158
11031159,Jernaldergården,11031159,58.941151,5.697386,http://gt.rkt.no/H11031159
11031160,Folkeviseveien,11031160,58.942143,5.699277,http://gt.rkt.no/H11031160
11031161,Folkeviseveien,11031161,58.942575,5.700726,http://gt.rkt.no/H11031161
11031162,Tjodveien,11031162,58.942980,5.698210,http://gt.rkt.no/H11031162
11031163,Gangarstien,11031163,58.943435,5.696395,http://gt.rkt.no/H11031163
11031164,Gangarstien,11031164,58.944160,5.695750,http://gt.rkt.no/H11031164
11031165,Jernalderveien,11031165,58.945139,5.693627,http://gt.rkt.no/H11031165
11031166,Jernalderveien,11031166,58.945441,5.692987,http://gt.rkt.no/H11031166
11031167,Norvald Frafjords gate,11031167,58.945470,5.689860,http://gt.rkt.no/H11031167
11031168,Norvald Frafjords gate,11031168,58.945498,5.690378,http://gt.rkt.no/H11031168
11031169,Madlavollveien,11031169,58.943150,5.686250,http://gt.rkt.no/H11031169
11031170,Sofus Bugges gate,11031170,58.942918,5.684865,http://gt.rkt.no/H11031170
11031171,Sofus Bugges gate,11031171,58.942235,5.682715,http://gt.rkt.no/H11031171
11031172,Gosen,11031172,58.939657,5.686257,http://gt.rkt.no/H11031172
11031173,Gosen,11031173,58.939461,5.687766,http://gt.rkt.no/H11031173
11031174,Madlamark kirke,11031174,58.942820,5.682230,http://gt.rkt.no/H11031174
11031175,Madlamark kirke,11031175,58.942980,5.681890,http://gt.rkt.no/H11031175
11031176,Bjørn Farmanns gate,11031176,58.945090,5.681730,http://gt.rkt.no/H11031176
11031177,Skjalgs gate,11031177,58.946420,5.680850,http://gt.rkt.no/H11031177
11031178,Blancas gate,11031178,58.948890,5.680390,http://gt.rkt.no/H11031178
11031179,Blancas gate,11031179,58.948970,5.680230,http://gt.rkt.no/H11031179
11031180,Klovsteinveien,11031180,58.950878,5.683106,http://gt.rkt.no/H11031180
11031181,Molkeholen,11031181,58.952150,5.682770,http://gt.rkt.no/H11031181
11031182,Madlakrossen hlp. 4,11031182,58.953560,5.683920,http://gt.rkt.no/H11031182
11031183,Madlakrossen hlp. 3,11031183,58.953620,5.683270,http://gt.rkt.no/H11031183
11031184,Morgedalsveien,11031184,58.954050,5.688180,http://gt.rkt.no/H11031184
11031185,Sonja Henies gate,11031185,58.952220,5.688102,http://gt.rkt.no/H11031185
11031186,Sonja Henies gate,11031186,58.951754,5.688865,http://gt.rkt.no/H11031186
11031187,Sondre Norheims gate,11031187,58.949510,5.691920,http://gt.rkt.no/H11031187
11031188,Sondre Norheims gate,11031188,58.949610,5.693120,http://gt.rkt.no/H11031188
11031189,Tjensvolltorget,11031189,58.949410,5.696700,http://gt.rkt.no/H11031189
11031190,Tjensvolltorget,11031190,58.949310,5.696680,http://gt.rkt.no/H11031190
11031191,Tellusveien,11031191,58.948220,5.705450,http://gt.rkt.no/H11031191
11031192,Tellusveien,11031192,58.947835,5.705574,http://gt.rkt.no/H11031192
11031193,Tellusveien,11031193,58.946040,5.706360,http://gt.rkt.no/H11031193
11031194,Tellusveien,11031194,58.946513,5.707300,http://gt.rkt.no/H11031194
11031196,Tjensvollveien,11031196,58.948641,5.710582,http://gt.rkt.no/H11031196
11031197,Ullandhaugveien,11031197,58.950064,5.712815,http://gt.rkt.no/H11031197
11031198,Ullandhaugveien,11031198,58.949580,5.711710,http://gt.rkt.no/H11031198
11031199,S. Bergsliens gate,11031199,58.949640,5.714900,http://gt.rkt.no/H11031199
11031200,Kari Trestakks vei,11031200,58.947414,5.716038,http://gt.rkt.no/H11031200
11031205,Oscar Wistings gate,11031205,58.946488,5.717391,http://gt.rkt.no/H11031205
11031206,Saxemarka,11031206,58.947420,5.719990,http://gt.rkt.no/H11031206
11031207,Mosvangen camping,11031207,58.951983,5.716705,http://gt.rkt.no/H11031207
11031208,Mosvangen camping,11031208,58.952263,5.716404,http://gt.rkt.no/H11031208
11031215,Tjensvollkrysset,11031215,58.955940,5.698200,http://gt.rkt.no/H11031215
11031216,Tjensvollkrysset,11031216,58.956300,5.698610,http://gt.rkt.no/H11031216
11031217,Siddishallen,11031217,58.954710,5.694870,http://gt.rkt.no/H11031217
11031218,Stavanger turnhall,11031218,58.954370,5.691980,http://gt.rkt.no/H11031218
11031222,Lassa v/E39,11031222,58.957716,5.699053,http://gt.rkt.no/H11031222
11031223,Lassa v/E39,11031223,58.957698,5.699388,http://gt.rkt.no/H11031223
11031224,Madlaveien,11031224,58.959360,5.706170,http://gt.rkt.no/H11031224
11031225,Mosvannsparken,11031225,58.960700,5.710660,http://gt.rkt.no/H11031225
11031226,Mosvannsparken,11031226,58.961034,5.711064,http://gt.rkt.no/H11031226
11031227,Holbergs gate,11031227,58.961571,5.714970,http://gt.rkt.no/H11031227
11031228,Holbergs gate,11031228,58.961500,5.716480,http://gt.rkt.no/H11031228
11031231,St. Svithuns plass,11031231,58.962790,5.724560,http://gt.rkt.no/H11031231
11031232,St. Svithuns plass,11031232,58.963095,5.724435,http://gt.rkt.no/H11031232
11031233,Kannik,11031233,58.964596,5.728766,http://gt.rkt.no/H11031233
11031234,Kannik,11031234,58.964590,5.728328,http://gt.rkt.no/H11031234
11031236,Møllegata,11031236,58.967360,5.724850,http://gt.rkt.no/H11031236
11031238,Ledaal,11031238,58.965700,5.720530,http://gt.rkt.no/H11031238
11031239,Torfæusgate,11031239,58.963633,5.715668,http://gt.rkt.no/H11031239
11031240,Torfæusgate,11031240,58.963520,5.715120,http://gt.rkt.no/H11031240
11031241,Færøygata,11031241,58.964560,5.717770,http://gt.rkt.no/H11031241
11031242,Erling Skjalgsons gate,11031242,58.965731,5.720501,http://gt.rkt.no/H11031242
11031244,Wesselsgata,11031244,58.967600,5.723600,http://gt.rkt.no/H11031244
11031245,Møllegata,11031245,58.967710,5.725850,http://gt.rkt.no/H11031245
11031246,Løkkeveien,11031246,58.968294,5.727638,http://gt.rkt.no/H11031246
11031247,Henrik Steffens gate,11031247,58.969995,5.725598,http://gt.rkt.no/H11031247
11031248,Henrik Steffens gate,11031248,58.969974,5.725842,http://gt.rkt.no/H11031248
11031251,Løvdals gate,11031251,58.969637,5.722003,http://gt.rkt.no/H11031251
11031252,Niels Juels gate,11031252,58.970380,5.719540,http://gt.rkt.no/H11031252
11031254,Rudlå,11031254,58.971728,5.723158,http://gt.rkt.no/H11031254
11031255,Rudlå,11031255,58.972200,5.721480,http://gt.rkt.no/H11031255
11031256,Chr. Thranes plass,11031256,58.972571,5.719315,http://gt.rkt.no/H11031256
11031257,Chr. Thranes plass,11031257,58.973335,5.717658,http://gt.rkt.no/H11031257
11031258,Bjergsted,11031258,58.975328,5.719425,http://gt.rkt.no/H11031258
11031259,Bjergsted,11031259,58.974640,5.720131,http://gt.rkt.no/H11031259
11031260,Rosenberggata,11031260,58.978066,5.716138,http://gt.rkt.no/H11031260
11031261,Rosenberggata,11031261,58.977871,5.716033,http://gt.rkt.no/H11031261
11031263,Kaptein Mejlænders gate,11031263,58.979773,5.714986,http://gt.rkt.no/H11031263
11031264,Kaptein Mejlænders gate,11031264,58.980134,5.714451,http://gt.rkt.no/H11031264
11031265,Kalhammeren,11031265,58.980798,5.712496,http://gt.rkt.no/H11031265
11031266,Kalhammeren,11031266,58.981460,5.710425,http://gt.rkt.no/H11031266
11031267,Chr. Bjellands gate,11031267,58.982303,5.708775,http://gt.rkt.no/H11031267
11031268,Boknaveien,11031268,58.984446,5.707473,http://gt.rkt.no/H11031268
11031269,Boknaveien,11031269,58.984530,5.707541,http://gt.rkt.no/H11031269
11031271,Nedre Tastasjøen,11031271,58.987538,5.702185,http://gt.rkt.no/H11031271
11031272,Nedre Tastasjøen,11031272,58.987666,5.702251,http://gt.rkt.no/H11031272
11031273,Skogstøstraen,11031273,58.989828,5.696905,http://gt.rkt.no/H11031273
11031274,Skogstøstraen,11031274,58.990615,5.695018,http://gt.rkt.no/H11031274
11031275,Gabbroveien,11031275,58.991308,5.692071,http://gt.rkt.no/H11031275
11031277,Gabbroveien,11031277,58.990780,5.690240,http://gt.rkt.no/H11031277
11031278,Skiferveien,11031278,58.989580,5.689540,http://gt.rkt.no/H11031278
11031279,Granittveien,11031279,58.988808,5.691685,http://gt.rkt.no/H11031279
11031280,Granittveien,11031280,58.988050,5.692570,http://gt.rkt.no/H11031280
11031281,Froastølveien,11031281,58.986780,5.693380,http://gt.rkt.no/H11031281
11031282,Froastølveien,11031282,58.985860,5.693260,http://gt.rkt.no/H11031282
11031283,Fagerstølveien,11031283,58.984250,5.692270,http://gt.rkt.no/H11031283
11031284,Smiehagen nord,11031284,58.982965,5.688430,http://gt.rkt.no/H11031284
11031285,Smiehagen,11031285,58.981870,5.690640,http://gt.rkt.no/H11031285
11031286,Fjellsenden,11031286,58.979750,5.691950,http://gt.rkt.no/H11031286
11031287,Fjellsenden,11031287,58.979740,5.691670,http://gt.rkt.no/H11031287
11031288,Tasta sykehjem,11031288,58.978620,5.697300,http://gt.rkt.no/H11031288
11031289,Tasta sykehjem,11031289,58.978440,5.698080,http://gt.rkt.no/H11031289
11031290,Ospeveien,11031290,58.975870,5.699688,http://gt.rkt.no/H11031290
11031291,Sjøveien,11031291,58.977721,5.701656,http://gt.rkt.no/H11031291
11031293,Vølstadveien,11031293,58.977850,5.703090,http://gt.rkt.no/H11031293
11031294,Vølstadveien,11031294,58.977500,5.705010,http://gt.rkt.no/H11031294
11031295,Esbjerggate,11031295,58.976950,5.708180,http://gt.rkt.no/H11031295
11031296,Nordensgate,11031296,58.975840,5.709920,http://gt.rkt.no/H11031296
11031297,Randabergveien 5,11031297,58.975210,5.710890,http://gt.rkt.no/H11031297
11031298,Sverdrup terrasse,11031298,58.974947,5.714959,http://gt.rkt.no/H11031298
11031299,Solandsbakken,11031299,58.974351,5.715953,http://gt.rkt.no/H11031299
11031300,Obstfelders vei,11031300,58.972970,5.713380,http://gt.rkt.no/H11031300
11031301,Obstfelders vei,11031301,58.972650,5.713530,http://gt.rkt.no/H11031301
11031302,Seehusens gate,11031302,58.971400,5.714990,http://gt.rkt.no/H11031302
11031303,Seehusens gate,11031303,58.970764,5.715342,http://gt.rkt.no/H11031303
11031305,Lars Dahles vei,11031305,58.970631,5.712373,http://gt.rkt.no/H11031305
11031306,Mester Gottfrieds vei,11031306,58.970026,5.709383,http://gt.rkt.no/H11031306
11031307,Knut Baades gate,11031307,58.970488,5.706593,http://gt.rkt.no/H11031307
11031308,Carl Sundt Hansens gate,11031308,58.972910,5.705938,http://gt.rkt.no/H11031308
11031309,Byhaugen,11031309,58.974206,5.706156,http://gt.rkt.no/H11031309
11031311,Birkebeinerveien,11031311,58.969070,5.709250,http://gt.rkt.no/H11031311
11031312,Rikard Nordraaks vei,11031312,58.969320,5.705870,http://gt.rkt.no/H11031312
11031315,Kons.Hellienses gate,11031315,58.967260,5.709690,http://gt.rkt.no/H11031315
11031316,Steingata,11031316,58.967100,5.711410,http://gt.rkt.no/H11031316
11031317,Steingata,11031317,58.966743,5.711563,http://gt.rkt.no/H11031317
11031318,Stavanger stadion,11031318,58.965085,5.712955,http://gt.rkt.no/H11031318
11031319,Stavanger stadion,11031319,58.964900,5.713060,http://gt.rkt.no/H11031319
11031320,Dues vei,11031320,58.965960,5.705630,http://gt.rkt.no/H11031320
11031322,Stokka terrasse,11031322,58.965230,5.703390,http://gt.rkt.no/H11031322
11031323,Erika Nissens vei,11031323,58.961750,5.701120,http://gt.rkt.no/H11031323
11031325,Lassaveien,11031325,58.960750,5.697440,http://gt.rkt.no/H11031325
11031327,Stokka sykehjem,11031327,58.960840,5.691820,http://gt.rkt.no/H11031327
11031330,Stokka kirke,11031330,58.963940,5.691290,http://gt.rkt.no/H11031330
11031331,Nedre Stokkavei,11031331,58.966340,5.691000,http://gt.rkt.no/H11031331
11031333,Lille Stokkavannet,11031333,58.967790,5.692600,http://gt.rkt.no/H11031333
11031334,Gustav Vigelands vei,11031334,58.968460,5.697340,http://gt.rkt.no/H11031334
11031337,Tiurveien,11031337,58.953080,5.676810,http://gt.rkt.no/H11031337
11031339,Madlastokken,11031339,58.951733,5.675648,http://gt.rkt.no/H11031339
11031340,Madlastokken,11031340,58.950611,5.674573,http://gt.rkt.no/H11031340
11031349,Kompani Linges vei,11031349,58.943908,5.666928,http://gt.rkt.no/H11031349
11031350,Kompani Linges vei,11031350,58.943948,5.665440,http://gt.rkt.no/H11031350
11031351,Skytterlagsveien,11031351,58.943486,5.659763,http://gt.rkt.no/H11031351
11031352,Hafrsfjord skole,11031352,58.943380,5.660605,http://gt.rkt.no/H11031352
11031354,Madlastø,11031354,58.944111,5.656274,http://gt.rkt.no/H11031354
11031355,Sersjantsvingen,11031355,58.941833,5.653680,http://gt.rkt.no/H11031355
11031356,Sersjantsvingen,11031356,58.942168,5.655250,http://gt.rkt.no/H11031356
11031358,Grenaderveien,11031358,58.941023,5.650948,http://gt.rkt.no/H11031358
11031359,Madlatuå,11031359,58.940066,5.648541,http://gt.rkt.no/H11031359
11031360,Madlatuå,11031360,58.939560,5.647756,http://gt.rkt.no/H11031360
11031362,Madlasandnes,11031362,58.936380,5.641063,http://gt.rkt.no/H11031362
11031363,Regimentsveien,11031363,58.946415,5.652563,http://gt.rkt.no/H11031363
11031364,Tvarabergkroken,11031364,58.947920,5.650816,http://gt.rkt.no/H11031364
11031367,Revheimskrossen,11031367,58.950424,5.645455,http://gt.rkt.no/H11031367
11031370,Vesthei,11031370,58.947981,5.636541,http://gt.rkt.no/H11031370
11031371,Hestnes,11031371,58.947500,5.631650,http://gt.rkt.no/H11031371
11031376,Revheim kirke,11031376,58.951740,5.644240,http://gt.rkt.no/H11031376
11031378,Revheim kirke,11031378,58.952560,5.642870,http://gt.rkt.no/H11031378
11031379,Djupedalskroken,11031379,58.953008,5.641173,http://gt.rkt.no/H11031379
11031380,Djupedalskroken,11031380,58.953670,5.639710,http://gt.rkt.no/H11031380
11031382,Bråde,11031382,58.956560,5.636670,http://gt.rkt.no/H11031382
11031384,Bråde,11031384,58.956710,5.636780,http://gt.rkt.no/H11031384
11031385,Sundetunet,11031385,58.959233,5.633919,http://gt.rkt.no/H11031385
11031388,Friheim,11031388,58.971070,5.656300,http://gt.rkt.no/H11031388
11031394,Ragbakken,11031394,58.951770,5.655090,http://gt.rkt.no/H11031394
11031395,Ragbakken,11031395,58.951640,5.654780,http://gt.rkt.no/H11031395
11031396,Møldalsveien,11031396,58.952169,5.665165,http://gt.rkt.no/H11031396
11031397,Møldalsveien,11031397,58.952110,5.665490,http://gt.rkt.no/H11031397
11031398,Madlaforen,11031398,58.952920,5.671810,http://gt.rkt.no/H11031398
11031399,Madlaforen,11031399,58.952930,5.669450,http://gt.rkt.no/H11031399
11031400,Ekrehaugen,11031400,58.960880,5.627550,http://gt.rkt.no/H11031400
11031401,Ekrehaugen,11031401,58.961030,5.625220,http://gt.rkt.no/H11031401
11031402,Sunde skole,11031402,58.960920,5.623570,http://gt.rkt.no/H11031402
11031403,Sunde skole,11031403,58.961530,5.619710,http://gt.rkt.no/H11031403
11031404,Skredbakka,11031404,58.961860,5.617770,http://gt.rkt.no/H11031404
11031405,Sundelia,11031405,58.964390,5.614250,http://gt.rkt.no/H11031405
11031406,Sundelia,11031406,58.963660,5.614720,http://gt.rkt.no/H11031406
11031407,Sundekrossen,11031407,58.962210,5.614840,http://gt.rkt.no/H11031407
11020002,Bråsteinvatnet nord,11020002,58.808300,5.776369,http://gt.rkt.no/H11020002
11020004,Bråsteinvatnet sør,11020004,58.800573,5.781638,http://gt.rkt.no/H11020004
11020005,Figgjo vest,11020005,58.790330,5.805322,http://gt.rkt.no/H11020005
11020006,Figgjo vest,11020006,58.790375,5.805703,http://gt.rkt.no/H11020006
11020007,Figgjohallen,11020007,58.788161,5.808226,http://gt.rkt.no/H11020007
11020008,Figgjohallen,11020008,58.787995,5.808266,http://gt.rkt.no/H11020008
11020009,Figgjo skole,11020009,58.786678,5.811842,http://gt.rkt.no/H11020009
11020010,Figgjo stadion,11020010,58.787358,5.816836,http://gt.rkt.no/H11020010
11020011,Figgjo stadion,11020011,58.787265,5.816609,http://gt.rkt.no/H11020011
11020012,Kvednaberget,11020012,58.785569,5.820422,http://gt.rkt.no/H11020012
11020013,Storeholen,11020013,58.781909,5.825712,http://gt.rkt.no/H11020013
11020014,Kvednaberget,11020014,58.785447,5.820364,http://gt.rkt.no/H11020014
11020015,Kylles,11020015,58.844560,5.821670,http://gt.rkt.no/H11020015
11020016,Kylles,11020016,58.844410,5.821820,http://gt.rkt.no/H11020016
11020017,Lyngnesveien,11020017,58.836556,5.839685,http://gt.rkt.no/H11020017
11020019,Foss Vatne øst,11020019,58.839441,5.843796,http://gt.rkt.no/H11020019
11020020,Skjelbrei vest,11020020,58.840725,5.863248,http://gt.rkt.no/H11020020
11020021,Skjelbrei øst,11020021,58.840808,5.865528,http://gt.rkt.no/H11020021
11020022,Nordlandsheia,11020022,58.849380,5.888266,http://gt.rkt.no/H11020022
11020023,Nordlandsheia,11020023,58.849169,5.888049,http://gt.rkt.no/H11020023
11020024,Høgevollsveien,11020024,58.851254,5.748493,http://gt.rkt.no/H11020024
11020025,Rovika,11020025,58.859308,5.754596,http://gt.rkt.no/H11020025
11020026,Rovika,11020026,58.858850,5.754981,http://gt.rkt.no/H11020026
11020027,Åsveien 94,11020027,58.859927,5.759553,http://gt.rkt.no/H11020027
11020028,Åsveien 94,11020028,58.860305,5.759046,http://gt.rkt.no/H11020028
11020033,Kyrkjevegen,11020033,58.845948,5.757437,http://gt.rkt.no/H11020033
11020034,Kyrkjevegen,11020034,58.845791,5.757304,http://gt.rkt.no/H11020034
11020035,Spinnargaten,11020035,58.846168,5.746588,http://gt.rkt.no/H11020035
11020036,Walter Roffs vei,11020036,58.845585,5.743587,http://gt.rkt.no/H11020036
11020037,Walter Roffs vei,11020037,58.845376,5.743387,http://gt.rkt.no/H11020037
11020038,Høyland u.skole,11020038,58.843624,5.741000,http://gt.rkt.no/H11020038
11020039,Høyland u.skole,11020039,58.843611,5.741375,http://gt.rkt.no/H11020039
11020040,Austrått skole,11020040,58.841914,5.738978,http://gt.rkt.no/H11020040
11020041,Lensmannsgaten,11020041,58.843446,5.737205,http://gt.rkt.no/H11020041
11020043,Prestegårdsveien,11020043,58.838069,5.741538,http://gt.rkt.no/H11020043
11020044,Prestegårdsveien,11020044,58.838129,5.741768,http://gt.rkt.no/H11020044
11020045,Hovsbakken,11020045,58.833890,5.741663,http://gt.rkt.no/H11020045
11020046,Hovsbakken,11020046,58.833930,5.741455,http://gt.rkt.no/H11020046
11020047,Tronsholen,11020047,58.831888,5.745293,http://gt.rkt.no/H11020047
11020048,Prestheiveien,11020048,58.832626,5.742290,http://gt.rkt.no/H11020048
11020049,Høyland kirke,11020049,58.831448,5.750392,http://gt.rkt.no/H11020049
11020050,Høyland kirke,11020050,58.831140,5.751010,http://gt.rkt.no/H11020050
11020051,Melsheiveien,11020051,58.828370,5.756586,http://gt.rkt.no/H11020051
11020054,Melsheiveien,11020054,58.827398,5.757223,http://gt.rkt.no/H11020054
11020055,Auestad,11020055,58.846722,5.778515,http://gt.rkt.no/H11020055
11020056,Auestad,11020056,58.846989,5.778586,http://gt.rkt.no/H11020056
11020057,Stompamyra,11020057,58.843795,5.801513,http://gt.rkt.no/H11020057
11020058,Stompamyra,11020058,58.843674,5.799603,http://gt.rkt.no/H11020058
11020059,Stompabakken,11020059,58.844727,5.808569,http://gt.rkt.no/H11020059
11020060,Stompabakken,11020060,58.844277,5.808774,http://gt.rkt.no/H11020060
11020062,Sviland,11020062,58.829810,5.821270,http://gt.rkt.no/H11020062
11020063,Sviland,11020063,58.830170,5.821490,http://gt.rkt.no/H11020063
11020064,Søredalen,11020064,58.823466,5.828711,http://gt.rkt.no/H11020064
11020065,Gand kirke,11020065,58.840442,5.713011,http://gt.rkt.no/H11020065
11020066,Opalveien,11020066,58.838103,5.713140,http://gt.rkt.no/H11020066
11020067,Topasveien,11020067,58.834840,5.713580,http://gt.rkt.no/H11020067
11020068,Juvelveien,11020068,58.832502,5.712640,http://gt.rkt.no/H11020068
11020069,Kvernhusbekken,11020069,58.882000,5.835360,http://gt.rkt.no/H11020069
11020071,Bergura,11020071,58.882849,5.885656,http://gt.rkt.no/H11020071
11020073,Strondlia,11020073,58.876051,5.767916,http://gt.rkt.no/H11020073
11020074,Strondlia,11020074,58.876082,5.768735,http://gt.rkt.no/H11020074
11020075,Kommandantveien,11020075,58.864305,5.797366,http://gt.rkt.no/H11020075
11020076,Kommandantveien,11020076,58.864178,5.797509,http://gt.rkt.no/H11020076
11020077,Hagakrossen,11020077,58.872695,5.814896,http://gt.rkt.no/H11020077
11020078,Hagakrossen,11020078,58.872733,5.813415,http://gt.rkt.no/H11020078
11020079,Lutsivatnet,11020079,58.878708,5.829351,http://gt.rkt.no/H11020079
11020080,Lutsivatnet,11020080,58.877978,5.827693,http://gt.rkt.no/H11020080
11020082,Bjellandsletta,11020082,58.911025,5.851481,http://gt.rkt.no/H11020082
11020083,Bjellandsletta,11020083,58.910888,5.851571,http://gt.rkt.no/H11020083
11020084,Riskafeltet,11020084,58.919161,5.849357,http://gt.rkt.no/H11020084
11020085,Riskafeltet,11020085,58.919155,5.849632,http://gt.rkt.no/H11020085
11020086,Gydas vei,11020086,58.920588,5.861121,http://gt.rkt.no/H11020086
11020087,Berglots vei,11020087,58.919863,5.865907,http://gt.rkt.no/H11020087
11020088,Nordafjellveien,11020088,58.921670,5.839475,http://gt.rkt.no/H11020088
11020090,Riskahallen,11020090,58.925226,5.847735,http://gt.rkt.no/H11020090
11020091,Gamle Frøylandsvei,11020091,58.921380,5.852364,http://gt.rkt.no/H11020091
11020092,Riska aldersheim,11020092,58.927250,5.855246,http://gt.rkt.no/H11020092
11020093,Riska aldersheim,11020093,58.927428,5.854293,http://gt.rkt.no/H11020093
11020095,Kleivadalveien,11020095,58.928696,5.864009,http://gt.rkt.no/H11020095
11020096,Hetland,11020096,58.936704,5.874826,http://gt.rkt.no/H11020096
11020097,Karmel,11020097,58.920479,5.824921,http://gt.rkt.no/H11020097
11020098,Karmel,11020098,58.920174,5.824882,http://gt.rkt.no/H11020098
11020099,Riskatun,11020099,58.915215,5.827532,http://gt.rkt.no/H11020099
11020100,Riskatun,11020100,58.916265,5.827667,http://gt.rkt.no/H11020100
11020101,Jødestad,11020101,58.911005,5.828066,http://gt.rkt.no/H11020101
11020103,Vier,11020103,58.963808,5.891926,http://gt.rkt.no/H11020103
11020104,Sletten vest,11020104,58.950332,5.914104,http://gt.rkt.no/H11020104
11020105,Sletten vest,11020105,58.950453,5.914418,http://gt.rkt.no/H11020105
11020106,Vierveien,11020106,58.947756,5.894981,http://gt.rkt.no/H11020106
11020107,Lauvåsvågen vest,11020107,58.944148,5.881648,http://gt.rkt.no/H11020107
11020108,Breivik,11020108,58.948420,5.926350,http://gt.rkt.no/H11020108
11020109,Imskrossen,11020109,58.909097,5.959007,http://gt.rkt.no/H11020109
11020110,Ryfylkeveien,11020110,58.903727,5.922000,http://gt.rkt.no/H11020110
11020111,Ryfylkeveien,11020111,58.903585,5.922189,http://gt.rkt.no/H11020111
11020112,Åreskjold,11020112,58.821333,5.896241,http://gt.rkt.no/H11020112
11020113,Tveit,11020113,58.821518,5.906448,http://gt.rkt.no/H11020113
11020115,Tveit,11020115,58.821568,5.908960,http://gt.rkt.no/H11020115
11020116,Tveit,11020116,58.821296,5.909750,http://gt.rkt.no/H11020116
11020118,Ims,11020118,58.903645,5.963401,http://gt.rkt.no/H11020118
11020119,Ims,11020119,58.903756,5.963990,http://gt.rkt.no/H11020119
11020120,Dansenveien,11020120,58.903285,5.966044,http://gt.rkt.no/H11020120
11020121,Dansenveien,11020121,58.903048,5.966006,http://gt.rkt.no/H11020121
11020122,Høle,11020122,58.895450,6.009350,http://gt.rkt.no/H11020122
11020123,Høle skole,11020123,58.896096,6.019886,http://gt.rkt.no/H11020123
11020126,Selvikveien,11020126,58.891981,6.049517,http://gt.rkt.no/H11020126
11020127,Tengesdalveien,11020127,58.866213,5.947767,http://gt.rkt.no/H11020127
11020128,Tengesdalveien,11020128,58.866386,5.948491,http://gt.rkt.no/H11020128
11020130,Gjesteland,11020130,58.882423,6.009414,http://gt.rkt.no/H11020130
11020131,Hommeland,11020131,58.872510,6.000031,http://gt.rkt.no/H11020131
11020132,Hommeland,11020132,58.872648,5.999759,http://gt.rkt.no/H11020132
11020133,Fløysvikbakken,11020133,58.891378,5.906915,http://gt.rkt.no/H11020133
11020134,Fløysvikbakken,11020134,58.891167,5.906123,http://gt.rkt.no/H11020134
11020135,Fløysvik øst,11020135,58.898754,5.917599,http://gt.rkt.no/H11020135
11020136,Fløysvik vest,11020136,58.887733,5.893598,http://gt.rkt.no/H11020136
11020137,Horvevatnet,11020137,58.906018,5.938394,http://gt.rkt.no/H11020137
11020138,Horve sør,11020138,58.901107,5.920915,http://gt.rkt.no/H11020138
11020143,Seldal vest,11020143,58.837790,5.990700,http://gt.rkt.no/H11020143
11020144,Røynli,11020144,58.832813,5.968481,http://gt.rkt.no/H11020144
11020147,Jødestad,11020147,58.911385,5.828355,http://gt.rkt.no/H11020147
11020148,Breivikveien,11020148,58.930945,5.845926,http://gt.rkt.no/H11020148
11020149,Urskjellveien,11020149,58.924856,5.843401,http://gt.rkt.no/H11020149
11020150,Sanddalveien,11020150,58.918091,5.871860,http://gt.rkt.no/H11020150
11020151,Osaland,11020151,58.862222,5.927060,http://gt.rkt.no/H11020151
11020152,Osaland,11020152,58.862150,5.927200,http://gt.rkt.no/H11020152
11020153,Auglend,11020153,58.858350,5.915365,http://gt.rkt.no/H11020153
11020155,Arnestein,11020155,58.852072,5.897947,http://gt.rkt.no/H11020155
11020156,Arnestein,11020156,58.852398,5.897654,http://gt.rkt.no/H11020156
11020157,Sporalandveien,11020157,58.848370,5.885432,http://gt.rkt.no/H11020157
11020158,Sporalandveien,11020158,58.848396,5.884999,http://gt.rkt.no/H11020158
11020159,Ur-Eikeland,11020159,58.823620,5.860944,http://gt.rkt.no/H11020159
11020161,Litla Hetland,11020161,58.823718,5.878763,http://gt.rkt.no/H11020161
11020162,Sandvika,11020162,58.870792,5.767762,http://gt.rkt.no/H11020162
11020164,Sandvikbakken,11020164,58.869621,5.767185,http://gt.rkt.no/H11020164
11020165,Løenuten,11020165,58.869190,5.766013,http://gt.rkt.no/H11020165
11020166,Asperholen,11020166,58.866365,5.761580,http://gt.rkt.no/H11020166
11020167,Grevlingveien,11020167,58.867140,5.764950,http://gt.rkt.no/H11020167
11020168,Rovikheimen,11020168,58.864705,5.758893,http://gt.rkt.no/H11020168
11020169,Laberget,11020169,58.862413,5.754308,http://gt.rkt.no/H11020169
11020170,Åsveien,11020170,58.858389,5.763370,http://gt.rkt.no/H11020170
11020172,Vatneliveien,11020172,58.854124,5.777528,http://gt.rkt.no/H11020172
11020173,Vatneliveien,11020173,58.854225,5.777615,http://gt.rkt.no/H11020173
11020174,Sandbakkveien,11020174,58.856365,5.787836,http://gt.rkt.no/H11020174
11020175,Sandbakkveien,11020175,58.855985,5.786445,http://gt.rkt.no/H11020175
11020177,Skytebaneveien,11020177,58.861254,5.793446,http://gt.rkt.no/H11020177
11020180,Sviland skole,11020180,58.827241,5.821420,http://gt.rkt.no/H11020180
11020181,Osli,11020181,58.814048,5.767643,http://gt.rkt.no/H11020181
11020182,Osli,11020182,58.814153,5.767758,http://gt.rkt.no/H11020182
11020183,Hogstadkrossen,11020183,58.883760,5.837900,http://gt.rkt.no/H11020183
11020185,Luramyrveien,11020185,58.879218,5.723281,http://gt.rkt.no/H11020185
11020186,Luramyrveien,11020186,58.879165,5.723340,http://gt.rkt.no/H11020186
11020187,Ikea varehus,11020187,58.887003,5.723696,http://gt.rkt.no/H11020187
11020188,Midtbergmyrå,11020188,58.887758,5.728961,http://gt.rkt.no/H11020188
11020189,Midtbergmyrå,11020189,58.888230,5.729330,http://gt.rkt.no/H11020189
11020190,Porsmyrveien,11020190,58.880400,5.726520,http://gt.rkt.no/H11020190
11020191,Jakob Askelands vei,11020191,58.883110,5.727490,http://gt.rkt.no/H11020191
11020192,Lindeveien,11020192,58.878010,5.725570,http://gt.rkt.no/H11020192
11020195,Seljeveien,11020195,58.874316,5.728206,http://gt.rkt.no/H11020195
11020196,Seljeveien,11020196,58.874393,5.729833,http://gt.rkt.no/H11020196
11020197,Gamle Postvei,11020197,58.872021,5.738065,http://gt.rkt.no/H11020197
11020198,Lurabekken,11020198,58.873880,5.740290,http://gt.rkt.no/H11020198
11020199,Lurabekken,11020199,58.873556,5.739965,http://gt.rkt.no/H11020199
11020200,Luravika,11020200,58.875310,5.740630,http://gt.rkt.no/H11020200
11020201,Lurahammaren,11020201,58.879360,5.742700,http://gt.rkt.no/H11020201
11020202,Lurahammaren,11020202,58.878930,5.742270,http://gt.rkt.no/H11020202
11020203,Eventyrveien,11020203,58.882220,5.743260,http://gt.rkt.no/H11020203
11020206,Flørliveien,11020206,58.869134,5.739005,http://gt.rkt.no/H11020206
11020207,Varatun sykehjem,11020207,58.867825,5.736652,http://gt.rkt.no/H11020207
11020208,Varatun,11020208,58.865261,5.736542,http://gt.rkt.no/H11020208
11020209,Schweigaardgaten,11020209,58.869010,5.742130,http://gt.rkt.no/H11020209
11020210,Schweigaardgaten,11020210,58.868870,5.742040,http://gt.rkt.no/H11020210
11020211,Roald Amundsensgt.,11020211,58.866669,5.742475,http://gt.rkt.no/H11020211
11020212,K. M. Sørensens gate,11020212,58.863640,5.742800,http://gt.rkt.no/H11020212
11020215,Østråtbanen,11020215,58.861240,5.743990,http://gt.rkt.no/H11020215
11020217,Rødekorshuset,11020217,58.859208,5.743507,http://gt.rkt.no/H11020217
11020218,Rødekorshuset,11020218,58.858568,5.742880,http://gt.rkt.no/H11020218
11020222,Troneshagen,11020222,58.857731,5.733440,http://gt.rkt.no/H11020222
11020224,Trones skole,11020224,58.855762,5.731972,http://gt.rkt.no/H11020224
11020229,Storgata,11020229,58.850990,5.730270,http://gt.rkt.no/H11020229
11020230,Storgata,11020230,58.850862,5.729910,http://gt.rkt.no/H11020230
11020231,Slåttaveien,11020231,58.850227,5.720450,http://gt.rkt.no/H11020231
11020232,Slåttaveien,11020232,58.850611,5.720466,http://gt.rkt.no/H11020232
11020233,Foren,11020233,58.846987,5.716082,http://gt.rkt.no/H11020233
11020239,Stangeland skole,11020239,58.854990,5.715540,http://gt.rkt.no/H11020239
11020240,Stangeland skole,11020240,58.855098,5.715886,http://gt.rkt.no/H11020240
11020241,Theodor Dahls vei,11020241,58.853198,5.720522,http://gt.rkt.no/H11020241
11020242,Bekkasinveien,11020242,58.845379,5.711586,http://gt.rkt.no/H11020242
11020243,Svaneveien,11020243,58.844786,5.707675,http://gt.rkt.no/H11020243
11020244,Svaneveien,11020244,58.844363,5.705807,http://gt.rkt.no/H11020244
11020246,Planteskolen,11020246,58.843280,5.698140,http://gt.rkt.no/H11020246
11020247,Oalsgaten,11020247,58.849384,5.731937,http://gt.rkt.no/H11020247
11020248,Sandnes rådhus,11020248,58.847287,5.729687,http://gt.rkt.no/H11020248
11020249,Sandnes rådhus,11020249,58.846661,5.728908,http://gt.rkt.no/H11020249
11020250,Brugaten,11020250,58.845102,5.728737,http://gt.rkt.no/H11020250
11020251,Brugaten,11020251,58.844307,5.727879,http://gt.rkt.no/H11020251
11020252,Sandskaret,11020252,58.841927,5.726345,http://gt.rkt.no/H11020252
11020253,Sandskaret,11020253,58.841878,5.725827,http://gt.rkt.no/H11020253
11020254,Gjesdalveien,11020254,58.848092,5.737867,http://gt.rkt.no/H11020254
11020255,Gand vgs.,11020255,58.846218,5.735925,http://gt.rkt.no/H11020255
11020256,Gand vgs.,11020256,58.845883,5.735945,http://gt.rkt.no/H11020256
11020257,Ospabakken,11020257,58.842874,5.734644,http://gt.rkt.no/H11020257
11020258,Ospabakken,11020258,58.842191,5.734550,http://gt.rkt.no/H11020258
11020259,Olinebakken,11020259,58.839475,5.733620,http://gt.rkt.no/H11020259
11020261,Lensmannsgaten,11020261,58.843824,5.737721,http://gt.rkt.no/H11020261
11020262,Gamle Somavei,11020262,58.872449,5.724575,http://gt.rkt.no/H11020262
11020263,Gamle Somavei,11020263,58.872408,5.724931,http://gt.rkt.no/H11020263
11020264,Bedriftsveien,11020264,58.869574,5.726566,http://gt.rkt.no/H11020264
11020265,Bedriftsveien,11020265,58.869490,5.726971,http://gt.rkt.no/H11020265
11020266,Dyre Vaas vei,11020266,58.868475,5.729139,http://gt.rkt.no/H11020266
11020267,Dyre Vaas vei,11020267,58.868318,5.729329,http://gt.rkt.no/H11020267
11020268,Ståle Kyllingstadvei,11020268,58.868351,5.734175,http://gt.rkt.no/H11020268
11020269,Ståle Kyllingstadvei,11020269,58.868149,5.734370,http://gt.rkt.no/H11020269
11020270,Statoil vest,11020270,58.891868,5.706370,http://gt.rkt.no/H11020270
11020271,Esso hovedkontor,11020271,58.889036,5.721986,http://gt.rkt.no/H11020271
11020298,Vadet,11020298,58.841888,5.692044,http://gt.rkt.no/H11020298
11020299,Vadet,11020299,58.841644,5.692000,http://gt.rkt.no/H11020299
11020300,Todnem,11020300,58.840308,5.686718,http://gt.rkt.no/H11020300
11020301,Todnem,11020301,58.840455,5.686473,http://gt.rkt.no/H11020301
11020302,Trollsholen,11020302,58.837518,5.681116,http://gt.rkt.no/H11020302
11020303,Trollsholen,11020303,58.837570,5.681575,http://gt.rkt.no/H11020303
11020304,Solbakken,11020304,58.835050,5.676226,http://gt.rkt.no/H11020304
11020305,Solbakken,11020305,58.834980,5.676500,http://gt.rkt.no/H11020305
11020306,Raugstad,11020306,58.833290,5.672000,http://gt.rkt.no/H11020306
11020307,Raugstad,11020307,58.833060,5.672010,http://gt.rkt.no/H11020307
11020309,Malmheimkrossen,11020309,58.831451,5.663607,http://gt.rkt.no/H11020309
11020311,Julebygda grendahus,11020311,58.831370,5.658240,http://gt.rkt.no/H11020311
11020312,Leakrossen,11020312,58.830634,5.648816,http://gt.rkt.no/H11020312
11020313,Leakrossen,11020313,58.830510,5.648750,http://gt.rkt.no/H11020313
11020314,Håland,11020314,58.829930,5.640586,http://gt.rkt.no/H11020314
11020315,Håland,11020315,58.829840,5.640760,http://gt.rkt.no/H11020315
11020316,Heigrekrossen,11020316,58.828200,5.633350,http://gt.rkt.no/H11020316
11020318,Skarskrossen,11020318,58.826338,5.629361,http://gt.rkt.no/H11020318
11020319,Skarskrossen,11020319,58.826439,5.629648,http://gt.rkt.no/H11020319
11020320,Sandvedhagen,11020320,58.836871,5.722098,http://gt.rkt.no/H11020320
11020321,Sandvedhagen,11020321,58.836944,5.722501,http://gt.rkt.no/H11020321
11020322,Åsedalen,11020322,58.834270,5.720381,http://gt.rkt.no/H11020322
11020323,Åsedalen,11020323,58.833542,5.719136,http://gt.rkt.no/H11020323
11020325,Aase,11020325,58.829444,5.716667,http://gt.rkt.no/H11020325
11020326,Rishagen,11020326,58.830126,5.716418,http://gt.rkt.no/H11020326
11020327,Mor Aases vei,11020327,58.831586,5.713826,http://gt.rkt.no/H11020327
11020328,Juvelveien,11020328,58.832365,5.712963,http://gt.rkt.no/H11020328
11020329,Topasveien,11020329,58.834689,5.713696,http://gt.rkt.no/H11020329
11020330,Opalveien,11020330,58.837769,5.713236,http://gt.rkt.no/H11020330
11020331,Gand kirke,11020331,58.840521,5.713138,http://gt.rkt.no/H11020331
11020332,Sandved skole,11020332,58.843092,5.716598,http://gt.rkt.no/H11020332
11020333,Sandved skole,11020333,58.841703,5.714505,http://gt.rkt.no/H11020333
11020334,Kvelluren,11020334,58.836446,5.731903,http://gt.rkt.no/H11020334
11020335,Hovebakken,11020335,58.834456,5.730633,http://gt.rkt.no/H11020335
11020336,Hovebakken,11020336,58.834494,5.730958,http://gt.rkt.no/H11020336
11020337,Kvelluren,11020337,58.836541,5.732465,http://gt.rkt.no/H11020337
11020339,Foren,11020339,58.846407,5.715727,http://gt.rkt.no/H11020339
11020340,Olabakken,11020340,58.825411,5.715009,http://gt.rkt.no/H11020340
11020341,Olabakken,11020341,58.825746,5.714941,http://gt.rkt.no/H11020341
11020342,Ganddal skole,11020342,58.823147,5.712211,http://gt.rkt.no/H11020342
11020343,Ganddal bydelshus,11020343,58.821553,5.709783,http://gt.rkt.no/H11020343
11020344,Ganddal bydelshus,11020344,58.821038,5.709460,http://gt.rkt.no/H11020344
11020345,Ganddal sentrum,11020345,58.822020,5.716510,http://gt.rkt.no/H11020345
11020346,Ganddal sentrum,11020346,58.822000,5.716800,http://gt.rkt.no/H11020346
11020347,Øykjabakken,11020347,58.824432,5.719745,http://gt.rkt.no/H11020347
11020348,Hauge,11020348,58.826203,5.722728,http://gt.rkt.no/H11020348
11020349,Hauge,11020349,58.826388,5.723238,http://gt.rkt.no/H11020349
11020350,Kvål,11020350,58.818301,5.719213,http://gt.rkt.no/H11020350
11020351,Kvål,11020351,58.818895,5.719062,http://gt.rkt.no/H11020351
11020352,Lundeleitet,11020352,58.828984,5.724726,http://gt.rkt.no/H11020352
11020353,Lundeleitet,11020353,58.828643,5.724758,http://gt.rkt.no/H11020353
11020356,Vagle,11020356,58.813948,5.724216,http://gt.rkt.no/H11020356
11020357,Vagle,11020357,58.814062,5.724468,http://gt.rkt.no/H11020357
11020358,Vaglemoen,11020358,58.806905,5.724712,http://gt.rkt.no/H11020358
11020359,Vaglemoen,11020359,58.806805,5.725006,http://gt.rkt.no/H11020359
11020360,Foss-Eikeland st.,11020360,58.802358,5.728823,http://gt.rkt.no/H11020360
11020361,Foss-Eikeland st.,11020361,58.802810,5.728741,http://gt.rkt.no/H11020361
11020362,Foss-Eikeland,11020362,58.800288,5.731701,http://gt.rkt.no/H11020362
11020363,Foss-Eikeland,11020363,58.800288,5.732052,http://gt.rkt.no/H11020363
11020364,Fredheimveien,11020364,58.817973,5.705586,http://gt.rkt.no/H11020364
11020365,Leiteveien,11020365,58.816545,5.703760,http://gt.rkt.no/H11020365
11020366,Leiteveien,11020366,58.815746,5.702458,http://gt.rkt.no/H11020366
11020367,Trekløver,11020367,58.814721,5.701426,http://gt.rkt.no/H11020367
11020368,Trekløver,11020368,58.813408,5.699333,http://gt.rkt.no/H11020368
11020369,Håbakken,11020369,58.810700,5.695413,http://gt.rkt.no/H11020369
11020371,Skjæveland bru,11020371,58.807128,5.690688,http://gt.rkt.no/H11020371
11020372,Skjæveland bru,11020372,58.806441,5.688471,http://gt.rkt.no/H11020372
11020373,Esso hovedkontor,11020373,58.888955,5.721990,http://gt.rkt.no/H11020373
11020374,Sandnes sentrum,11020374,58.854790,5.739140,http://gt.rkt.no/H11020374
11020376,Theodor Dahls vei,11020376,58.853119,5.721864,http://gt.rkt.no/H11020376
11020377,Løwenstrasse,11020377,58.886462,5.728782,http://gt.rkt.no/H11020377
11020378,Løwenstrasse,11020378,58.884670,5.727760,http://gt.rkt.no/H11020378
11020379,Ikea varehus,11020379,58.887466,5.723796,http://gt.rkt.no/H11020379
11020380,Luramyrveien v/ABB,11020380,58.883638,5.724881,http://gt.rkt.no/H11020380
11020381,Eventyrveien,11020381,58.882897,5.742869,http://gt.rkt.no/H11020381
11020382,Lindeveien,11020382,58.878039,5.725264,http://gt.rkt.no/H11020382
11020383,Porsmyrveien,11020383,58.880947,5.726365,http://gt.rkt.no/H11020383
11020384,Lerkeveien,11020384,58.873890,5.733285,http://gt.rkt.no/H11020384
11020385,Lerkeveien,11020385,58.873210,5.734631,http://gt.rkt.no/H11020385
11020386,Gamle Postvei,11020386,58.872066,5.737590,http://gt.rkt.no/H11020386
11020387,Luravika,11020387,58.875690,5.741020,http://gt.rkt.no/H11020387
11020388,Varatun sykehjem,11020388,58.867913,5.737095,http://gt.rkt.no/H11020388
11020389,Varatun,11020389,58.865375,5.736250,http://gt.rkt.no/H11020389
11020391,Roald Amundsensgt.,11020391,58.866998,5.742643,http://gt.rkt.no/H11020391
11020392,Flørliveien,11020392,58.869048,5.739541,http://gt.rkt.no/H11020392
11020393,Århaugen,11020393,58.863341,5.735444,http://gt.rkt.no/H11020393
11020394,Århaugen,11020394,58.863044,5.735623,http://gt.rkt.no/H11020394
11020395,K. M. Sørensens gate,11020395,58.864050,5.742860,http://gt.rkt.no/H11020395
11020398,Østråtbanen,11020398,58.860744,5.743844,http://gt.rkt.no/H11020398
11020399,Sandnes turnhall,11020399,58.856440,5.741020,http://gt.rkt.no/H11020399
11020400,Sandnes turnhall,11020400,58.856170,5.740270,http://gt.rkt.no/H11020400
11020402,Vågsgjerdveien,11020402,58.849382,5.737354,http://gt.rkt.no/H11020402
11020403,Vågsgjerdveien,11020403,58.848785,5.738154,http://gt.rkt.no/H11020403
11020404,Gjesdalveien,11020404,58.848339,5.738069,http://gt.rkt.no/H11020404
11020405,Møllegaten,11020405,58.852220,5.725968,http://gt.rkt.no/H11020405
11020406,Møllegaten,11020406,58.852310,5.726220,http://gt.rkt.no/H11020406
11020407,Bj.Bjørnsons gate,11020407,58.851550,5.723305,http://gt.rkt.no/H11020407
11020409,Austrått skole,11020409,58.841337,5.738563,http://gt.rkt.no/H11020409
11020410,Austrått skole,11020410,58.841126,5.739417,http://gt.rkt.no/H11020410
11020411,Giljarhaugen,11020411,58.856494,5.752119,http://gt.rkt.no/H11020411
11020412,Giljarhaugen,11020412,58.855695,5.749455,http://gt.rkt.no/H11020412
11020413,Havanna,11020413,58.854138,5.750071,http://gt.rkt.no/H11020413
11020414,Havanna,11020414,58.853964,5.749580,http://gt.rkt.no/H11020414
11020415,Høgevollsveien,11020415,58.851266,5.748191,http://gt.rkt.no/H11020415
11020418,Hana skole,11020418,58.854165,5.754509,http://gt.rkt.no/H11020418
11020419,Hana skole,11020419,58.854092,5.755380,http://gt.rkt.no/H11020419
11020420,Fjellveien,11020420,58.853452,5.758703,http://gt.rkt.no/H11020420
11020421,Fjellveien,11020421,58.852993,5.757251,http://gt.rkt.no/H11020421
11020422,Eddaveien,11020422,58.853950,5.761970,http://gt.rkt.no/H11020422
11020423,Eddaveien,11020423,58.854260,5.762600,http://gt.rkt.no/H11020423
11020424,Hana,11020424,58.854845,5.766237,http://gt.rkt.no/H11020424
11020425,Hana,11020425,58.855013,5.766473,http://gt.rkt.no/H11020425
11020426,Vatnekrossen,11020426,58.853458,5.771506,http://gt.rkt.no/H11020426
11020427,Vatnekrossen,11020427,58.853379,5.771911,http://gt.rkt.no/H11020427
11020428,Laberget,11020428,58.862853,5.754881,http://gt.rkt.no/H11020428
11020429,Aspervika,11020429,58.866979,5.757687,http://gt.rkt.no/H11020429
11020430,Aspervika,11020430,58.867259,5.758898,http://gt.rkt.no/H11020430
11020431,Daleveien v/Sandvika,11020431,58.871043,5.765797,http://gt.rkt.no/H11020431
11020432,Daleveien v/Sandvika,11020432,58.870497,5.764620,http://gt.rkt.no/H11020432
11020433,Sandvika,11020433,58.870640,5.767645,http://gt.rkt.no/H11020433
11020434,Ragnhilds vei,11020434,58.919863,5.869328,http://gt.rkt.no/H11020434
11020435,Stoklongen,11020435,58.882948,5.864351,http://gt.rkt.no/H11020435
11020436,Hogstadvika,11020436,58.886754,5.859399,http://gt.rkt.no/H11020436
11020437,Imskrossen,11020437,58.908565,5.959098,http://gt.rkt.no/H11020437
11020439,Svihusvatnet,11020439,58.821396,5.939394,http://gt.rkt.no/H11020439
11020440,Åreskjold,11020440,58.821348,5.896096,http://gt.rkt.no/H11020440
11020441,Søredalen,11020441,58.823362,5.828654,http://gt.rkt.no/H11020441
11020442,Bråsteinvatnet sør,11020442,58.800825,5.781743,http://gt.rkt.no/H11020442
11020445,Bråstein,11020445,58.796261,5.786256,http://gt.rkt.no/H11020445
11020446,Bråstein,11020446,58.796437,5.786601,http://gt.rkt.no/H11020446
11020447,Søredalen krossen,11020447,58.824577,5.822819,http://gt.rkt.no/H11020447
11020449,Foren,11020449,58.840680,5.828083,http://gt.rkt.no/H11020449
11020450,Foren,11020450,58.840713,5.827938,http://gt.rkt.no/H11020450
11020451,Foren,11020451,58.837960,5.833941,http://gt.rkt.no/H11020451
11020452,Foren,11020452,58.837559,5.833599,http://gt.rkt.no/H11020452
11020453,Skårlandkrossen,11020453,58.835065,5.818640,http://gt.rkt.no/H11020453
11020454,Skårlandkrossen,11020454,58.835085,5.818788,http://gt.rkt.no/H11020454
11020455,Foss Vatne øst,11020455,58.839028,5.843846,http://gt.rkt.no/H11020455
11020456,Levang øst,11020456,58.846310,5.878240,http://gt.rkt.no/H11020456
11020457,Levang øst,11020457,58.846086,5.877695,http://gt.rkt.no/H11020457
11020458,Levang,11020458,58.845446,5.876128,http://gt.rkt.no/H11020458
11020460,Levang vest,11020460,58.843961,5.873563,http://gt.rkt.no/H11020460
11020461,Levang,11020461,58.845453,5.876258,http://gt.rkt.no/H11020461
11020462,Skjelbrei øst,11020462,58.840796,5.865571,http://gt.rkt.no/H11020462
11020463,Skjelbrei vest,11020463,58.841047,5.863084,http://gt.rkt.no/H11020463
11020464,Auglend,11020464,58.855841,5.906917,http://gt.rkt.no/H11020464
11020465,Auglend,11020465,58.855931,5.906847,http://gt.rkt.no/H11020465
11020467,Trodalveien,11020467,58.896173,6.024421,http://gt.rkt.no/H11020467
11020468,Trodalveien v/Flo,11020468,58.895285,6.028846,http://gt.rkt.no/H11020468
11020470,Liakrossen,11020470,58.896460,6.000307,http://gt.rkt.no/H11020470
11020472,Lauvvik kai,11020472,58.894520,6.055100,http://gt.rkt.no/H11020472
11020473,Sviland øst,11020473,58.823076,5.833941,http://gt.rkt.no/H11020473
11020474,Skjørestad,11020474,58.845211,5.795473,http://gt.rkt.no/H11020474
11020475,Skjørestad,11020475,58.845306,5.795215,http://gt.rkt.no/H11020475
11020476,Breivik øst,11020476,58.949455,5.923630,http://gt.rkt.no/H11020476
11020477,Breivik øst,11020477,58.949601,5.923895,http://gt.rkt.no/H11020477
11020478,Sletten øst,11020478,58.949750,5.918740,http://gt.rkt.no/H11020478
11020479,Sletten øst,11020479,58.949733,5.917305,http://gt.rkt.no/H11020479
11020484,Lauvåsvågen øst,11020484,58.945050,5.886518,http://gt.rkt.no/H11020484
11020485,Lauvåsvågen vest,11020485,58.944108,5.881668,http://gt.rkt.no/H11020485
11020488,Lauvås,11020488,58.939368,5.875118,http://gt.rkt.no/H11020488
11020489,Hetlandvatnet,11020489,58.936932,5.874903,http://gt.rkt.no/H11020489
11020490,Lauvås,11020490,58.939955,5.875205,http://gt.rkt.no/H11020490
11020491,Hetland skog vest,11020491,58.929722,5.867496,http://gt.rkt.no/H11020491
11020495,Eskemyrveien,11020495,58.918010,5.852667,http://gt.rkt.no/H11020495
11020496,Eskemyrveien,11020496,58.917530,5.852123,http://gt.rkt.no/H11020496
11020497,Flatabergveien,11020497,58.920466,5.842879,http://gt.rkt.no/H11020497
11020498,Flatabergveien,11020498,58.920629,5.842611,http://gt.rkt.no/H11020498
11020500,Breivikveien,11020500,58.924330,5.843381,http://gt.rkt.no/H11020500
11020502,Gullskjellveien,11020502,58.925218,5.841052,http://gt.rkt.no/H11020502
11020503,Gullskjellveien,11020503,58.925832,5.840746,http://gt.rkt.no/H11020503
11020504,Kyrkjevollen skole,11020504,58.926933,5.839743,http://gt.rkt.no/H11020504
11020506,Breivikveien,11020506,58.931107,5.845919,http://gt.rkt.no/H11020506
11020507,Hommersåk,11020507,58.929910,5.847779,http://gt.rkt.no/H11020507
11020508,Nedre Livei,11020508,58.922297,5.834774,http://gt.rkt.no/H11020508
11020509,Skjørestad,11020509,58.903795,5.834531,http://gt.rkt.no/H11020509
11020510,Skjørestad nord,11020510,58.906585,5.831250,http://gt.rkt.no/H11020510
11020511,Skjørestad nord,11020511,58.907198,5.830451,http://gt.rkt.no/H11020511
11020512,Haugaland,11020512,58.900476,5.843590,http://gt.rkt.no/H11020512
11020513,Haugaland,11020513,58.901400,5.843285,http://gt.rkt.no/H11020513
11020514,Jødestadkrysset,11020514,58.896320,5.844050,http://gt.rkt.no/H11020514
11020515,Meland,11020515,58.902189,5.850382,http://gt.rkt.no/H11020515
11020516,Meland,11020516,58.902555,5.849823,http://gt.rkt.no/H11020516
11020517,Bjellandveien,11020517,58.904481,5.850198,http://gt.rkt.no/H11020517
11020518,Bjellandveien,11020518,58.904223,5.850577,http://gt.rkt.no/H11020518
11020519,Haugveien,11020519,58.914630,5.851917,http://gt.rkt.no/H11020519
11020523,Hovland,11020523,58.892350,5.844040,http://gt.rkt.no/H11020523
11020524,Hovland nord,11020524,58.894820,5.844000,http://gt.rkt.no/H11020524
11020525,Hovland,11020525,58.892621,5.844378,http://gt.rkt.no/H11020525
11020526,Lutsiskog,11020526,58.880476,5.832578,http://gt.rkt.no/H11020526
11020527,Lutsiskog,11020527,58.879943,5.831358,http://gt.rkt.no/H11020527
11020529,Dybingen,11020529,58.871568,5.808250,http://gt.rkt.no/H11020529
11020532,Stoklongen,11020532,58.883180,5.864231,http://gt.rkt.no/H11020532
11020533,Sloklongstjørna,11020533,58.882948,5.871206,http://gt.rkt.no/H11020533
11020534,Bergura,11020534,58.882940,5.885283,http://gt.rkt.no/H11020534
11020535,Horvetjædna,11020535,58.905541,5.934275,http://gt.rkt.no/H11020535
11020536,Horvetjædna,11020536,58.905375,5.934327,http://gt.rkt.no/H11020536
11020537,Horvevatnet,11020537,58.905785,5.938587,http://gt.rkt.no/H11020537
11020538,Horvetjædna vest,11020538,58.906450,5.932618,http://gt.rkt.no/H11020538
11020539,Horve sør,11020539,58.901071,5.920373,http://gt.rkt.no/H11020539
11020540,Fløysvik øst,11020540,58.898736,5.917669,http://gt.rkt.no/H11020540
11020543,Hetland øst,11020543,58.897421,5.915502,http://gt.rkt.no/H11020543
11020544,Hetland øst,11020544,58.897039,5.915609,http://gt.rkt.no/H11020544
11030549,Stavanger hlp. 8,11030549,58.966600,5.734400,http://gt.rkt.no/H11030549
11020550,Kronen Gaard,11020550,58.854775,5.783492,http://gt.rkt.no/H11020550
11020551,Kronen Gaard,11020551,58.854756,5.782675,http://gt.rkt.no/H11020551
11020552,Riarveien,11020552,58.846321,5.750341,http://gt.rkt.no/H11020552
11020554,Spinnargaten,11020554,58.845999,5.746923,http://gt.rkt.no/H11020554
11020555,Skogvokterveien,11020555,58.824813,5.756426,http://gt.rkt.no/H11020555
11020556,Buggelandveien,11020556,58.817552,5.764432,http://gt.rkt.no/H11020556
11020560,Rishagen,11020560,58.829945,5.716274,http://gt.rkt.no/H11020560
11204622,Skotaheia,11204622,58.777979,5.587108,http://gt.rkt.no/H11204622
11204623,Skotaheia,11204623,58.777833,5.586470,http://gt.rkt.no/H11204623
11204625,Damsgard,11204625,58.772775,5.591106,http://gt.rkt.no/H11204625
11204628,Stemmemyra,11204628,58.786468,5.579856,http://gt.rkt.no/H11204628
11204629,Horpestad nord,11204629,58.747888,5.584034,http://gt.rkt.no/H11204629
11204630,Storeholen,11204630,58.746141,5.594399,http://gt.rkt.no/H11204630
11204632,Skaret,11204632,58.737786,5.638555,http://gt.rkt.no/H11204632
11194633,Nærheim vest,11194633,58.677664,5.585804,http://gt.rkt.no/H11194633
11594637,Vikevik,11594637,59.591582,5.591019,http://gt.rkt.no/H11594637
11464645,Stakkland,11464645,59.431671,5.561012,http://gt.rkt.no/H11464645
11144651,Bjerkreim skule,11144651,58.583782,6.078947,http://gt.rkt.no/H11144651
11144652,Vikeså skule,11144652,58.640316,6.102565,http://gt.rkt.no/H11144652
11124654,Heskestad skole,11124654,58.531087,6.340979,http://gt.rkt.no/H11124654
11014655,Eigerøyveien,11014655,58.460534,5.975422,http://gt.rkt.no/H11014655
11224688,Eikelandsmyrane,11224688,58.756251,5.809421,http://gt.rkt.no/H11224688
11344738,Hebnes,11344738,59.353523,5.962097,http://gt.rkt.no/H11344738
11344740,Ropeid,11344740,59.485190,6.213640,http://gt.rkt.no/H11344740
11214759,Vassbø,11214759,58.733873,5.674656,http://gt.rkt.no/H11214759
11224774,Kyllingstad,11224774,58.726371,5.980068,http://gt.rkt.no/H11224774
11014776,Gya,11014776,58.596370,6.346330,http://gt.rkt.no/H11014776
10464785,Tonstad sentrum,10464785,58.664501,6.717316,http://gt.rkt.no/H10464785
11594789,Lunde,11594789,59.612520,5.775770,http://gt.rkt.no/H11594789
10464797,Tonstad rb. st.,10464797,58.666228,6.706125,http://gt.rkt.no/H10464797
11014842,Egelandsdalen,11014842,58.621690,6.461655,http://gt.rkt.no/H11014842
11014844,Gya,11014844,58.596346,6.346268,http://gt.rkt.no/H11014844
11114855,Åna Sira,11114855,58.293430,6.443260,http://gt.rkt.no/H11114855
11144856,Bjerkreim,11144856,58.584615,6.070457,http://gt.rkt.no/H11144856
11224857,Ålgård v/E39,11224857,58.766763,5.863052,http://gt.rkt.no/H11224857
11224858,Ålgård v/E39,11224858,58.766655,5.862914,http://gt.rkt.no/H11224858
11144859,Vikeså,11144859,58.631031,6.077688,http://gt.rkt.no/H11144859
11024881,Bogafjell vest,11024881,58.816160,5.744580,http://gt.rkt.no/H11024881
11024882,Vaglefjellskogen,11024882,58.816460,5.748330,http://gt.rkt.no/H11024882
11024883,Bogafjell,11024883,58.815950,5.753650,http://gt.rkt.no/H11024883
11024884,Vaglefjellbakken,11024884,58.814370,5.756430,http://gt.rkt.no/H11024884
11024885,Bogafjellskogen,11024885,58.817320,5.742250,http://gt.rkt.no/H11024885
11024886,Bogafjell øst,11024886,58.816720,5.758490,http://gt.rkt.no/H11024886
11034904,Osebergstien,11034904,58.988720,5.675290,http://gt.rkt.no/H11034904
11064906,Aibel,11064906,59.409299,5.266629,http://gt.rkt.no/H11064906
11064907,Haraldsvang skole,11064907,59.423784,5.280888,http://gt.rkt.no/H11064907
11494915,Røyksund,11494915,59.335725,5.363218,http://gt.rkt.no/H11494915
11494917,Tømmervik,11494917,59.217753,5.319715,http://gt.rkt.no/H11494917
11494918,Stangeland,11494918,59.277412,5.314360,http://gt.rkt.no/H11494918
11494919,Stangeland,11494919,59.276999,5.314227,http://gt.rkt.no/H11494919
11494920,Dale,11494920,59.177143,5.291535,http://gt.rkt.no/H11494920
11494921,Tømmervik,11494921,59.217758,5.320626,http://gt.rkt.no/H11494921
11494922,Fosen,11494922,59.311256,5.371270,http://gt.rkt.no/H11494922
11454923,Alvestad,11454923,59.218790,5.452890,http://gt.rkt.no/H11454923
11494924,Tuastad skole,11494924,59.350634,5.362954,http://gt.rkt.no/H11494924
11494925,Røyksund,11494925,59.335715,5.363042,http://gt.rkt.no/H11494925
11454926,Ognøy,11454926,59.253925,5.470619,http://gt.rkt.no/H11454926
11494927,Varaneskrossen,11494927,59.315875,5.370346,http://gt.rkt.no/H11494927
11354928,Åbødalen,11354928,59.661272,6.359971,http://gt.rkt.no/H11354928
11354929,Åbødalen,11354929,59.658880,6.361291,http://gt.rkt.no/H11354929
11354930,Åbødalen,11354930,59.663460,6.357601,http://gt.rkt.no/H11354930
11354931,Espeland,11354931,59.664964,6.355898,http://gt.rkt.no/H11354931
11354932,Espeland,11354932,59.661657,6.357368,http://gt.rkt.no/H11354932
11354934,Høllandstre øst,11354934,59.658029,6.360962,http://gt.rkt.no/H11354934
11354935,Brekke,11354935,59.656867,6.365258,http://gt.rkt.no/H11354935
11354936,Brekke,11354936,59.658864,6.375322,http://gt.rkt.no/H11354936
11354937,Rød Sauda,11354937,59.663380,6.389303,http://gt.rkt.no/H11354937
11354938,Rød Sauda,11354938,59.663333,6.391971,http://gt.rkt.no/H11354938
11354939,Austerheim,11354939,59.668246,6.408438,http://gt.rkt.no/H11354939
11354940,Saua,11354940,59.640543,6.302750,http://gt.rkt.no/H11354940
11354941,Sandvikåsen,11354941,59.639638,6.298362,http://gt.rkt.no/H11354941
11354942,Austerheim,11354942,59.665569,6.400703,http://gt.rkt.no/H11354942
11464945,Skaret,11464945,59.284994,5.523521,http://gt.rkt.no/H11464945
11594946,Ulvevne sør,11594946,59.548537,5.568174,http://gt.rkt.no/H11594946
11594947,Ulvevne sør,11594947,59.552362,5.565742,http://gt.rkt.no/H11594947
11594948,Ulvevne,11594948,59.553481,5.564597,http://gt.rkt.no/H11594948
11594949,Ulvevne,11594949,59.558670,5.567719,http://gt.rkt.no/H11594949
11594950,Ulvevne nord,11594950,59.571293,5.568544,http://gt.rkt.no/H11594950
11594951,Ulvevne nord,11594951,59.572536,5.568660,http://gt.rkt.no/H11594951
11594953,Dommasnes,11594953,59.582788,5.572953,http://gt.rkt.no/H11594953
11594954,Dommasnes,11594954,59.585628,5.577827,http://gt.rkt.no/H11594954
11594955,Alne,11594955,59.602946,5.590946,http://gt.rkt.no/H11594955
11594956,Alne,11594956,59.603331,5.590889,http://gt.rkt.no/H11594956
11594957,Alne nord,11594957,59.605560,5.588686,http://gt.rkt.no/H11594957
11464958,Li,11464958,59.294549,5.663439,http://gt.rkt.no/H11464958
11594959,Årvikveien,11594959,59.638682,5.582289,http://gt.rkt.no/H11594959
11464960,Slåttevik,11464960,59.314415,5.467775,http://gt.rkt.no/H11464960
11464961,Slåttevik,11464961,59.314842,5.466663,http://gt.rkt.no/H11464961
11594963,Tindeland,11594963,59.652520,5.575002,http://gt.rkt.no/H11594963
11594964,Tindeland nord,11594964,59.659768,5.573375,http://gt.rkt.no/H11594964
11594965,Åsbø,11594965,59.677965,5.593873,http://gt.rkt.no/H11594965
11594966,Åsbø,11594966,59.679184,5.595460,http://gt.rkt.no/H11594966
11594967,Åsbø,11594967,59.680246,5.599726,http://gt.rkt.no/H11594967
11594968,Skien nord,11594968,59.643547,5.770314,http://gt.rkt.no/H11594968
11354969,Rådhusgata,11354969,59.648930,6.353656,http://gt.rkt.no/H11354969
11594971,Skien,11594971,59.640171,5.774323,http://gt.rkt.no/H11594971
11594973,Skien sør,11594973,59.638171,5.777285,http://gt.rkt.no/H11594973
11594975,Skien sør,11594975,59.638416,5.776971,http://gt.rkt.no/H11594975
11604976,Dalavik,11604976,59.508923,5.526570,http://gt.rkt.no/H11604976
11464977,Stølen,11464977,59.278710,5.544968,http://gt.rkt.no/H11464977
11594980,Haugane,11594980,59.603829,5.827921,http://gt.rkt.no/H11594980
11594981,Haugane øst,11594981,59.603763,5.834120,http://gt.rkt.no/H11594981
11594982,Haugsgjerde øst,11594982,59.653831,5.730616,http://gt.rkt.no/H11594982
11594983,Haugane øst,11594983,59.603720,5.835218,http://gt.rkt.no/H11594983
11594984,Kjellesvik,11594984,59.648127,5.760216,http://gt.rkt.no/H11594984
11594985,Kjellesvik,11594985,59.648119,5.760517,http://gt.rkt.no/H11594985
11464988,Padlane,11464988,59.381519,5.476295,http://gt.rkt.no/H11464988
11464989,Aukland,11464989,59.436907,5.544790,http://gt.rkt.no/H11464989
11594990,Tindeland nord,11594990,59.655490,5.574879,http://gt.rkt.no/H11594990
11604991,Aksland,11604991,59.479973,6.099057,http://gt.rkt.no/H11604991
11594992,Gjerdevik vest,11594992,59.598644,5.750406,http://gt.rkt.no/H11594992
11604993,Skipavåg,11604993,59.488382,6.152390,http://gt.rkt.no/H11604993
11344994,Løvik,11344994,59.548596,6.337640,http://gt.rkt.no/H11344994
11465000,Nesheim,11465000,59.454301,5.380353,http://gt.rkt.no/H11465000
11465001,Sand,11465001,59.336359,5.569049,http://gt.rkt.no/H11465001
11465002,Nodlandskrossen,11465002,59.434990,5.383857,http://gt.rkt.no/H11465002
11465003,Nodlandskrossen,11465003,59.434981,5.383804,http://gt.rkt.no/H11465003
11455004,Grønnestad,11455004,59.201602,5.408474,http://gt.rkt.no/H11455004
11455005,Loten,11455005,59.170376,5.392878,http://gt.rkt.no/H11455005
11465006,Slåttevik,11465006,59.315232,5.458456,http://gt.rkt.no/H11465006
11465007,Eikje,11465007,59.299157,5.475211,http://gt.rkt.no/H11465007
11465008,Gismarvik,11465008,59.304530,5.405197,http://gt.rkt.no/H11465008
11605009,Knapphus,11605009,59.530288,5.688281,http://gt.rkt.no/H11605009
11465010,Falkeid,11465010,59.293449,5.523184,http://gt.rkt.no/H11465010
11355019,Sauda sjukehus,11355019,59.655968,6.362534,http://gt.rkt.no/H11355019
11355020,Sandvikdalen,11355020,59.635870,6.297598,http://gt.rkt.no/H11355020
11345026,Vanvik,11345026,59.547347,6.362484,http://gt.rkt.no/H11345026
11355027,Sauda u.skule,11355027,59.652148,6.355360,http://gt.rkt.no/H11355027
11455032,Torland,11455032,59.215425,5.425408,http://gt.rkt.no/H11455032
11455034,Trosnavåg kryss,11455034,59.193674,5.425174,http://gt.rkt.no/H11455034
11465036,Steinsvik,11465036,59.354883,5.608388,http://gt.rkt.no/H11465036
11605044,Nesheim,11605044,59.499445,5.717583,http://gt.rkt.no/H11605044
11035346,Stavanger spor 5,11035346,58.966550,5.733420,http://gt.rkt.no/H11035346
11605351,Sandeid,11605351,59.544107,5.863149,http://gt.rkt.no/H11605351
11345366,Medhus,11345366,59.380609,5.997509,http://gt.rkt.no/H11345366
11345367,Kjølvik,11345367,59.417323,6.019610,http://gt.rkt.no/H11345367
11345368,Solland,11345368,59.422332,6.064307,http://gt.rkt.no/H11345368
11345369,Øvrabø,11345369,59.434089,6.121696,http://gt.rkt.no/H11345369
11345370,Øvrabø,11345370,59.434099,6.121344,http://gt.rkt.no/H11345370
11345371,Solland,11345371,59.422440,6.064272,http://gt.rkt.no/H11345371
11345372,Kjølvik,11345372,59.417323,6.019452,http://gt.rkt.no/H11345372
11345373,Medhus,11345373,59.380546,5.997473,http://gt.rkt.no/H11345373
10045468,Fjellså,10045468,58.286120,6.608830,http://gt.rkt.no/H10045468
11245481,Skadberg,11245481,58.881550,5.671090,http://gt.rkt.no/H11245481
11145492,Asheim,11145492,58.679677,6.129095,http://gt.rkt.no/H11145492
11225497,Søyland,11225497,58.683307,5.987895,http://gt.rkt.no/H11225497
10045513,Svegeskogen,10045513,58.282150,6.640280,http://gt.rkt.no/H10045513
11015537,Årstaddalen,11015537,58.447699,6.005780,http://gt.rkt.no/H11015537
11015538,Hestnesveien,11015538,58.436889,6.008028,http://gt.rkt.no/H11015538
11015539,Hestnesveien,11015539,58.436951,6.008559,http://gt.rkt.no/H11015539
11015544,Hovlandsveien,11015544,58.456512,5.976432,http://gt.rkt.no/H11015544
11015545,Hovlandsveien,11015545,58.456458,5.976894,http://gt.rkt.no/H11015545
11015546,Syntø,11015546,58.425430,5.980170,http://gt.rkt.no/H11015546
11015547,Sundstø,11015547,58.429497,5.980925,http://gt.rkt.no/H11015547
11015548,Sundstø,11015548,58.429587,5.981353,http://gt.rkt.no/H11015548
11015550,Kjeld Bugges gate,11015550,58.448957,5.999394,http://gt.rkt.no/H11015550
11015551,Aarstadsgaten,11015551,58.450411,6.000748,http://gt.rkt.no/H11015551
11015552,Aarstadsgaten,11015552,58.449648,6.002871,http://gt.rkt.no/H11015552
11015553,Aarstadsgaten,11015553,58.449513,6.003128,http://gt.rkt.no/H11015553
11015554,Aarstadsgaten,11015554,58.450564,6.000869,http://gt.rkt.no/H11015554
11015555,Bjørkveien,11015555,58.443886,5.995057,http://gt.rkt.no/H11015555
11015556,Prestegårdsveien,11015556,58.446570,5.997371,http://gt.rkt.no/H11015556
11015557,Motalaveien,11015557,58.442198,5.994885,http://gt.rkt.no/H11015557
11015558,Hyvingeveien,11015558,58.439863,5.997588,http://gt.rkt.no/H11015558
11015559,Gamle Eigerøyveien,11015559,58.461205,5.992879,http://gt.rkt.no/H11015559
11015560,Gamle Eigerøyveien,11015560,58.461339,5.992622,http://gt.rkt.no/H11015560
11015565,Løyningveien,11015565,58.435549,5.976562,http://gt.rkt.no/H11015565
11015566,Løyningveien,11015566,58.435423,5.976802,http://gt.rkt.no/H11015566
11145567,Røyslandsfeltet,11145567,58.584289,6.062187,http://gt.rkt.no/H11145567
11145570,Vikesdal,11145570,58.643965,6.115323,http://gt.rkt.no/H11145570
11015571,Skjerpeveien,11015571,58.526703,6.126322,http://gt.rkt.no/H11015571
11215578,Årrestad,11215578,58.692557,5.769475,http://gt.rkt.no/H11215578
11015590,Lagårdsveien,11015590,58.463048,6.014741,http://gt.rkt.no/H11015590
11035602,Madlakrossen hlp. 1,11035602,58.953506,5.682641,http://gt.rkt.no/H11035602
11035603,Madlakrossen hlp. 2,11035603,58.953265,5.683008,http://gt.rkt.no/H11035603
11125613,Lund u.skole,11125613,58.452737,6.552811,http://gt.rkt.no/H11125613
11125614,Lagestrand,11125614,58.491880,6.517040,http://gt.rkt.no/H11125614
11125615,Surdal,11125615,58.515910,6.511390,http://gt.rkt.no/H11125615
11465619,Klovning,11465619,59.373064,5.476452,http://gt.rkt.no/H11465619
11465630,Tveit vgs.,11465630,59.345359,5.794591,http://gt.rkt.no/H11465630
11465644,Aksdal hlp. 2,11465644,59.421672,5.446441,http://gt.rkt.no/H11465644
11465645,Aksdal hlp. 3,11465645,59.421680,5.446160,http://gt.rkt.no/H11465645
11465646,Aksdal hlp. 4,11465646,59.421688,5.445913,http://gt.rkt.no/H11465646
11465647,Aksdal hlp. 5,11465647,59.421615,5.445632,http://gt.rkt.no/H11465647
11465648,Aksdal hlp. 6,11465648,59.421579,5.445633,http://gt.rkt.no/H11465648
11065649,Flotmyr hlp. 1,11065649,59.416467,5.273884,http://gt.rkt.no/H11065649
11065651,Flotmyr hlp. 3,11065651,59.416324,5.274099,http://gt.rkt.no/H11065651
11065652,Flotmyr hlp. 4,11065652,59.416270,5.274100,http://gt.rkt.no/H11065652
11065653,Flotmyr hlp. 5,11065653,59.416171,5.274049,http://gt.rkt.no/H11065653
11065654,Flotmyr hlp. 6,11065654,59.416126,5.274015,http://gt.rkt.no/H11065654
11495655,Norheim hlp. 1,11495655,59.379431,5.306101,http://gt.rkt.no/H11495655
11495656,Norheim hlp. 2,11495656,59.379565,5.306003,http://gt.rkt.no/H11495656
11495657,Norheim hlp. 3,11495657,59.379548,5.306345,http://gt.rkt.no/H11495657
11495658,Norheim hlp. 4,11495658,59.379710,5.306283,http://gt.rkt.no/H11495658
11495659,Norheim hlp. 5,11495659,59.379691,5.306558,http://gt.rkt.no/H11495659
11225660,Gjesdalhallen,11225660,58.772377,5.865222,http://gt.rkt.no/H11225660
11225661,Mosaberget,11225661,58.773021,5.876095,http://gt.rkt.no/H11225661
11025662,Svanholmen,11025662,58.890795,5.705770,http://gt.rkt.no/H11025662
11025664,Koppholen,11025664,58.891416,5.702318,http://gt.rkt.no/H11025664
11025665,Koppholen vest,11025665,58.891240,5.696620,http://gt.rkt.no/H11025665
11025666,Koppholen vest,11025666,58.891150,5.697020,http://gt.rkt.no/H11025666
11025667,Koppholen,11025667,58.891123,5.702175,http://gt.rkt.no/H11025667
11025668,Svanholmen,11025668,58.890756,5.706075,http://gt.rkt.no/H11025668
